Name in English,Degree of endangerment,Number of speakers,Latitude,Longitude,Dummy
South Italian,Vulnerable,7500000,40.9798,15.249,1
Sicilian,Vulnerable,5000000,37.4399,14.5019,1
Low Saxon,Vulnerable,4800000,53.4029,10.3601,1
Belarusian,Vulnerable,4000000,53.956,27.5756,1
Lombard,Definitely endangered,3500000,45.7215,9.3273,1
Romani,Definitely endangered,3500000,46.3165,22.3681,1
Yiddish (Israel),Definitely endangered,3000000,32.0833,34.8333,1
Gondi,Vulnerable,2713790,19.5804,80.4418,1
Limburgian-Ripuarian,Vulnerable,2600000,50.7781,6.0864,1
Quechua of Southern Bolivia,Vulnerable,2300000,-18.0675,-65.7641,1
Kumaoni,Vulnerable,2003783,29.4778,79.8486,1
Aymara,Vulnerable,2000000,-16.5835,-68.302,1
Emilian-Romagnol,Definitely endangered,2000000,44.127,12.0739,1
Piedmontese,Definitely endangered,2000000,45.2013,7.8662,1
Venetan,Vulnerable,2000000,45.4601,12.1948,1
Zazaki,Vulnerable,2000000,38.8824,40.4846,1
Kurux (India),Vulnerable,1751489,22.1467,85.2758,1
Tamajeq,Vulnerable,1750000,17.2352,8.0859,1
Tulu,Vulnerable,1722768,12.0178,75.7067,1
Kangdi,Definitely endangered,1700000,32.4356,76.1242,1
Scots,Vulnerable,1500000,56.2189,-3.7683,1
Torlak,Vulnerable,1500000,42.9644,22.1374,1
West Flemish,Vulnerable,1500000,51.0275,3.0541,1
Bashkir,Vulnerable,1379727,54.7309,55.9863,1
Chechen,Vulnerable,1331844,43.1971,45.7031,1
Chuvash,Vulnerable,1325382,56.1394,47.2412,1
Meithei,Vulnerable,1250000,24.7667,93.8946,1
Tamang,Vulnerable,1196639,27.7365,85.6858,1
Quechua of Cuzco,Vulnerable,1115000,-13.4537,-72.0098,1
Eastern Slovak,Vulnerable,1000000,48.8068,21.7968,1
Ligurian,Definitely endangered,1000000,44.5748,8.7011,1
Rusyn,Vulnerable,1000000,48.4437,22.9394,1
Talysh,Vulnerable,1000000,38.814,48.6804,1
Kui,Vulnerable,916222,19.5908,83.9575,1
Khasi,Vulnerable,912000,25.691,91.8676,1
Bodo,Vulnerable,900000,26.7554,92.8674,1
Campidanese,Definitely endangered,900000,39.2991,8.9868,1
K'iche' (Guatemala),Vulnerable,890596,15.0309,-91.1485,1
Quechua of Ayacucho,Definitely endangered,850000,-13.1276,-74.2071,1
Newar,Definitely endangered,825458,27.6981,85.3198,1
Mon,Vulnerable,800000,16.4666,97.7833,1
Polesian,Vulnerable,800000,51.8629,23.9501,1
Tamaceq,Definitely endangered,800000,16.7992,-3.0102,1
Avar,Vulnerable,784840,42.4801,46.8017,1
Mundari,Vulnerable,750000,22.3297,86.0449,1
Welsh,Vulnerable,750000,52.4459,-3.5485,1
Angika,Vulnerable,740892,24.7451,85.3124,1
Q'eqchi' (Guatemala),Vulnerable,716101,15.4707,-90.3722,1
Picard,Severely endangered,700000,50.2331,2.7905,1
Kokborok,Vulnerable,695000,23.7752,91.6918,1
Basque,Vulnerable,660000,43.133,-2.0764,1
Kabard-Cherkes,Vulnerable,650000,43.7393,43.4289,1
Mandeali,Definitely endangered,611930,31.4099,76.9921,1
Friulian,Definitely endangered,600000,46.1037,13.1396,1
Quechua of Ancash and Huánuco,Definitely endangered,600000,-9.4598,-77.1789,1
Walloon,Definitely endangered,600000,50.4575,4.8559,1
Mising,Definitely endangered,550000,26.9612,94.0539,1
Ossete,Vulnerable,550000,42.9564,44.4946,1
Mizo,Vulnerable,529000,22.9988,92.9223,1
Dargwa,Vulnerable,503523,42.1145,47.4938,1
Aromanian,Definitely endangered,500000,40.2292,21.1376,1
Brahui,Vulnerable,500000,29.0369,66.5826,1
Languedocian,Severely endangered,500000,43.8899,2.5378,1
Lezgian,Vulnerable,500000,41.4921,48.0541,1
Mahasui,Definitely endangered,496024,31.2738,77.1295,1
Magar,Definitely endangered,489383,28.0816,83.4301,1
Mam (Guatemala),Vulnerable,477717,14.9305,-91.9078,1
Udmurt,Definitely endangered,463837,57.2315,52.8662,1
Huasteca Náhuatl,Vulnerable,463183,21.3835,-98.9902,1
Kumyk,Vulnerable,458121,43.397,46.9775,1
Yakut,Vulnerable,456288,62.3496,130.8691,1
Kaqchikel (Guatemala),Vulnerable,444954,14.7814,-90.7925,1
Karbi,Vulnerable,420000,26.2934,93.2299,1
Eastern Mari,Definitely endangered,414211,56.632,47.8784,1
Ingush,Vulnerable,405343,43.145,45.1043,1
Erzya,Definitely endangered,400000,54.1302,45.4394,1
Ho,Vulnerable,400000,21.637,86.4404,1
Judezmo (Israel),Severely endangered,400000,32.0872,34.7737,1
Lalo,Vulnerable,400000,25.383,99.9426,1
Limousin,Severely endangered,400000,46.0579,1.8017,1
Logudorese,Definitely endangered,400000,40.1116,9.1845,1
Mapuche (Chile),Definitely endangered,400000,-38.5653,-73.081,1
Central Náhuatl,Vulnerable,395581,19.191,-99.0236,1
Moselle Franconian,Vulnerable,390000,49.6071,6.1248,1
Bantawa,Vulnerable,371056,27.0994,87.0048,1
Santa,Vulnerable,360000,35.5411,102.7935,1
Mingrelian,Definitely endangered,350000,42.4599,41.7205,1
West Frisian,Vulnerable,350000,53.1006,5.6579,1
Gurung,Definitely endangered,338925,28.275,84.1782,1
Guajiro,Vulnerable,318500,11.8673,-71.9824,1
Karachay-Balkar,Vulnerable,302748,44.2137,42.8466,1
Adyge,Vulnerable,300000,44.9181,39.7485,1
Buryat (Trans-Baikal),Definitely endangered,300000,50.8336,109.5117,1
Kurru,Definitely endangered,300000,16.6151,81.6284,1
Kuvi,Definitely endangered,300000,18.9478,83.5839,1
Limbu,Definitely endangered,300000,27.096,87.7356,1
Moroccan Judeo-Arabic (Israel),Definitely endangered,300000,32.0476,34.7552,1
Plautdietsch,Definitely endangered,300000,47.0738,35.5545,1
Pontic Greek,Definitely endangered,300000,40.847,40.0149,1
"Quichua (Cotopaxi, Tungurahua and Chimborazo)",Definitely endangered,300000,-1.8673,-78.9257,1
Waxiang,Vulnerable,300000,28.5652,110.3576,1
Oyrat,Definitely endangered,280000,46.195,88.7255,1
Garhwali,Vulnerable,279500,30.0976,79.1235,1
Bade,Vulnerable,250000,12.801,11.1181,1
Breton,Severely endangered,250000,48.2246,-3.9331,1
Gascon,Definitely endangered,250000,43.1811,-0.1428,1
Phula (China),Vulnerable,250000,22.6001,104.0004,1
Sora,Vulnerable,250000,19.1244,83.2104,1
Konyak,Vulnerable,248000,26.9367,95.1745,1
Ao,Vulnerable,243000,26.4361,94.6472,1
Tuvan,Vulnerable,242754,51.7134,94.3945,1
Nafusi,Severely endangered,240000,32.6393,13.4252,1
Suret,Definitely endangered,240000,36.4477,43.2971,1
Malto,Definitely endangered,224926,23.7853,85.4736,1
Khowar,Vulnerable,222800,35.8667,71.7956,1
Maiya,Vulnerable,220000,35.3151,72.908,1
Komi,Definitely endangered,217316,62.3087,51.5917,1
Alpine Provençal,Definitely endangered,200000,44.7467,6.6796,1
Gallo,Severely endangered,200000,47.931,-2.0544,1
Gera,Vulnerable,200000,10.5553,10.0579,1
Irula,Vulnerable,200000,11.4369,76.5032,1
Kharia,Vulnerable,200000,21.8003,85.4956,1
Khorasani Turk,Vulnerable,200000,36.6596,57.854,1
Korku,Vulnerable,200000,20.3034,80.2441,1
Moksha,Definitely endangered,200000,54.1817,43.2751,1
Western Armenian (Middle East),Definitely endangered,200000,33.884,35.5133,1
Western Cham,Vulnerable,200000,12.0333,105.4333,1
Tshangla,Vulnerable,193000,27.1275,91.9335,1
Thado,Vulnerable,191000,24.4521,93.2354,1
Gagauz (Bessarabia),Definitely endangered,180000,46.0922,28.7951,1
Kului,Definitely endangered,170770,31.4403,77.1487,1
Adi,Vulnerable,170000,28.3527,95.2294,1
Lhota,Vulnerable,170000,26.1603,94.3725,1
Nyishi,Vulnerable,170000,27.5277,93.0981,1
Ngäbere (Panama),Vulnerable,169130,9.3395,-82.2428,1
Kodagu,Definitely endangered,166187,11.6952,75.9375,1
Corsican,Definitely endangered,160000,42.0819,9.0307,1
Dzongkha,Vulnerable,160000,27.44,89.6731,1
Kalmyk,Definitely endangered,153602,46.2026,45.8239,1
Lak,Vulnerable,153373,42.0125,47.2521,1
Asturian-Leonese,Definitely endangered,150000,42.7954,-5.6689,1
Latgalian,Vulnerable,150000,56.1822,27.1362,1
Provençal,Severely endangered,150000,43.5485,6.1083,1
Rabha,Vulnerable,150000,25.9284,90.9777,1
Tamzabit,Vulnerable,150000,32.4816,3.6694,1
Sherpa,Vulnerable,143693,27.739,86.839,1
Tangkhul,Vulnerable,142000,25.0358,94.4824,1
Q'aanjob'al,Vulnerable,139830,15.6019,-91.4441,1
Badaga,Definitely endangered,134514,11.3642,76.5266,1
Angami,Vulnerable,132000,25.7553,94.1308,1
Laz,Definitely endangered,130000,41.2736,41.2646,1
Tabasaran,Vulnerable,128391,41.8081,47.9882,1
Chambeali,Definitely endangered,126589,32.9072,76.5307,1
Abkhaz,Vulnerable,125000,43.133,40.8471,1
Phom,Vulnerable,123000,26.7799,94.9493,1
Kolami,Definitely endangered,121855,20.5093,78.1787,1
Navajo,Vulnerable,120000,35.8044,-108.475,1
Sassarese,Definitely endangered,120000,40.6139,8.6132,1
Tamahaq (Algeria),Vulnerable,120000,22.8369,5.5371,1
Konda,Definitely endangered,118597,18.2763,82.9385,1
Sierra Totonac,Severely endangered,118367,20.2461,-97.6586,1
Jaunsari,Definitely endangered,114733,30.4859,78.0908,1
Dimasa,Vulnerable,112000,24.7368,92.9003,1
Ladakhi,Vulnerable,105000,34.0617,77.5909,1
Salar,Vulnerable,104503,36.2752,102.4584,1
Simi,Vulnerable,104000,25.9777,94.5922,1
Phurhepecha,Vulnerable,102988,19.3111,-102.041,1
Crimean Tatar (Crimea),Severely endangered,100000,45.3212,34.3212,1
Dagur (Nonni),Definitely endangered,100000,47.9163,124.1235,1
Francoprovençal,Definitely endangered,100000,45.7828,6.9982,1
Gallurese,Definitely endangered,100000,40.8802,9.4482,1
Mapuche (Argentina),Severely endangered,100000,-40.0791,-71.0156,1
Mehri,Definitely endangered,100000,16.5993,52.8057,1
Miskito (Nicaragua),Vulnerable,100000,12.4001,-83.7332,1
Ordos,Definitely endangered,100000,39.1641,108.1054,1
Quechua of Northern Bolivia,Vulnerable,100000,-15.3649,-69.0518,1
Suba,Vulnerable,100000,-0.9942,34.519,1
Garífuna (Honduras),Vulnerable,98000,15.6754,-88.1476,1
Embera (Colombia),Vulnerable,95000,6.1624,-76.8383,1
Kabui,Vulnerable,95000,24.7218,93.6584,1
Shughni,Vulnerable,95000,37.4879,71.5374,1
Permyak,Definitely endangered,94328,59.204,54.5361,1
Poqomchi',Vulnerable,92941,15.3757,-90.4288,1
Yimchungru,Vulnerable,92000,25.9629,94.9713,1
Nogay (Caucasus),Definitely endangered,90020,43.8028,46.2744,1
Heiban,Vulnerable,90000,10.8575,30.2371,1
Quichua (Cañar and Azuay),Severely endangered,90000,-2.6577,-78.8378,1
Mezquital Otomí,Definitely endangered,88789,20.4831,-99.217,1
Eastern Mazahua,Definitely endangered,88001,19.7129,-99.9515,1
Burushaski,Vulnerable,87000,35.909,74.2153,1
Central Otomí,Definitely endangered,84593,19.4661,-99.5944,1
Chokri,Vulnerable,84000,25.8691,94.7131,1
Sangtam,Vulnerable,84000,26.6032,94.9603,1
Ixil (Guatemala),Vulnerable,83574,15.4849,-91.0358,1
Achi',Vulnerable,82640,15.0845,-90.4888,1
Yem,Vulnerable,81613,7.6347,37.3205,1
Mao,Vulnerable,81000,25.5027,94.2681,1
Arbëresh,Definitely endangered,80000,40.9321,14.8645,1
Lari,Definitely endangered,80000,27.8585,54.8547,1
Páez,Definitely endangered,80000,2.8237,-76.3117,1
Quechua of Santiago del Estero,Definitely endangered,80000,-26.7848,-63.6767,1
Svan,Definitely endangered,80000,43.0207,42.3193,1
Tai Daeng,Vulnerable,80000,19.8833,104.6166,1
Taznatit,Severely endangered,80000,29.3413,0.3955,1
Razihi,Definitely endangered,75000,16.8834,43.2655,1
Wakhi,Definitely endangered,75000,37.1603,74.9047,1
Bishnupriya Manipuri Creole,Vulnerable,72899,24.297,92.4499,1
Acheron,Severely endangered,70000,10.809,30.2453,1
Maori,Vulnerable,70000,-38.4105,177.3632,1
Tai Neua,Vulnerable,70000,20.5166,104.3166,1
Bhadravahi,Definitely endangered,66918,33.5413,76.333,1
Kinnauri,Definitely endangered,65097,31.541,78.3764,1
Gallo-Sicilian,Definitely endangered,65000,38.0167,14.5994,1
Kurux (Bangladesh),Vulnerable,65000,25.8196,88.9672,1
Tz'utujil,Definitely endangered,63237,14.6394,-91.2301,1
Chamorro,Vulnerable,62500,13.4323,144.7338,1
Ashaninka (Peru),Vulnerable,62468,-10.6929,-74.3444,1
Chang,Vulnerable,62000,26.2934,94.9493,1
Kuna (Panama),Vulnerable,61703,9.5983,-79.6334,1
Churahi,Definitely endangered,61199,33.1835,76.5747,1
Nruanghmei,Vulnerable,61000,24.9661,93.5375,1
Rengma,Vulnerable,61000,25.958,94.2462,1
Faroese,Vulnerable,60000,62.0112,-6.7785,1
Northern Tujia,Severely endangered,60000,28.828,109.5904,1
Torwali,Definitely endangered,60000,35.5833,72.5,1
Chuj (Guatemala),Vulnerable,59048,15.8259,-91.4783,1
Kachari,Definitely endangered,59000,25.2844,93.2189,1
Scottish Gaelic,Definitely endangered,58552,58.1011,-6.7675,1
Sierra de Puebla Náhuatl,Definitely endangered,57189,19.6223,-97.8149,1
Limonese Creole,Definitely endangered,55000,9.9916,-83.0316,1
Kashubian,Severely endangered,53000,54.2267,18.1713,1
Khakas,Definitely endangered,52217,53.7746,90.3735,1
Parji,Critically endangered,51216,18.5629,82.8039,1
Arvanitika,Severely endangered,50000,38.1863,23.6096,1
Buryat (Cis-Baikal),Severely endangered,50000,52.7961,104.8809,1
Buryat (Manchuria),Definitely endangered,50000,49.8096,119.7509,1
Cuona Menba,Vulnerable,50000,26.8279,95.3623,1
Eastern Cham,Definitely endangered,50000,10.7833,108.0833,1
Hmar,Vulnerable,50000,24.577,93.3178,1
Huzhu Monguor,Severely endangered,50000,36.7608,102.4255,1
Paite,Vulnerable,50000,24.1968,93.3563,1
Quichua (Imbabura),Definitely endangered,50000,0.1757,-78.2006,1
Soqotri,Severely endangered,50000,12.5331,53.767,1
Southern Altay,Definitely endangered,50000,51.069,86.5942,1
Transylvanian Saxon,Severely endangered,50000,46.214,24.2413,1
Turoyo,Severely endangered,50000,37.405,41.3745,1
Võro-Seto,Definitely endangered,50000,57.8096,27.29,1
West Greenlandic,Vulnerable,50000,64.1681,-51.7236,1
Western Armenian (Turkey),Definitely endangered,50000,41.0213,28.9324,1
Zaramo,Definitely endangered,50000,-6.922,39.2409,1
Zenatiya,Critically endangered,50000,35.5702,1.8099,1
Papantla Totonac,Definitely endangered,49748,20.4477,-97.32,1
Wancho,Vulnerable,49000,26.9759,95.4656,1
Bhumji,Vulnerable,47000,21.8003,86.8139,1
Cosung (China),Definitely endangered,47000,22.6833,102.6666,1
Cosung (Viet Nam),Definitely endangered,47000,22.6166,102.75,1
Baheng (China),Vulnerable,45000,26.19,110.24,1
Lumun,Definitely endangered,45000,10.8387,30.0338,1
Quichua (Loja),Severely endangered,45000,-3.6236,-79.2388,1
Chamling,Definitely endangered,44093,27.0499,86.7329,1
Irish,Definitely endangered,44000,53.7876,-9.1845,1
Reshe,Vulnerable,44000,10.8791,4.6115,1
Sierra Otomí,Vulnerable,43468,20.1021,-97.622,1
Phuthi,Definitely endangered,43000,-29.3791,28.2838,1
Rarotongan,Vulnerable,43000,-21.2343,-159.7837,1
Khalaj,Vulnerable,42100,34.3751,50.3063,1
Dungan,Definitely endangered,41000,42.4518,78.4643,1
Kheza,Vulnerable,41000,25.6811,94.367,1
Jola-Kassa,Vulnerable,40850,13.1089,-15.8999,1
Satār,Vulnerable,40260,26.5541,87.918,1
Guaraní Boliviano,Vulnerable,40000,-20.1694,-63.8525,1
Gutob,Vulnerable,40000,18.7086,83.5839,1
Kheng,Vulnerable,40000,27.0786,91.0272,1
Laro,Definitely endangered,40000,10.7685,29.902,1
Minyong,Vulnerable,40000,28.2632,95.0537,1
Mru,Severely endangered,40000,21.7748,92.2741,1
Patani Malay,Vulnerable,40000,6.6482,100.0387,1
"Quechua of Cajatambo, Pasco and northern Junín",Severely endangered,40000,-10.6147,-76.506,1
Quichua (Napo),Definitely endangered,40000,-0.6371,-77.1459,1
Tangsa,Vulnerable,40000,27.4059,96.427,1
Tetserret,Severely endangered,40000,15.4907,6.2072,1
Awajun,Vulnerable,39000,-4.3464,-77.8271,1
Khiamngan,Vulnerable,38000,26.0518,95.1031,1
Ngile,Severely endangered,38000,10.7901,29.8635,1
Phunoi,Vulnerable,37311,21.6833,102.1,1
Lower Mixe,Vulnerable,37000,16.9616,-95.093,1
Maram,Vulnerable,37000,25.185,93.9715,1
Western Mari,Severely endangered,36822,56.3317,46.5545,1
Chepang,Vulnerable,36807,27.7552,84.8144,1
Chontal Tabasco,Severely endangered,36514,17.7607,-92.5936,1
Muji,Definitely endangered,36500,23.6,102.7333,1
Akatek (Guatemala),Vulnerable,35763,15.5724,-91.4218,1
Huichol,Vulnerable,35724,22.65,-103.5833,1
Romansh,Definitely endangered,35095,46.5777,9.6954,1
Apatani,Vulnerable,35000,27.5228,93.8177,1
Galo,Vulnerable,35000,28.1688,94.7433,1
Korwa,Vulnerable,35000,22.4922,84.1552,1
Shuar chicham,Definitely endangered,35000,-2.8826,-78.0303,1
Ticuna,Definitely endangered,35000,-4.3464,-70.0048,1
Wanka Quechua,Severely endangered,35000,-12.136,-75.2453,1
Sikuani,Vulnerable,34614,3.4256,-68.8183,1
Jakaltek (Guatemala),Definitely endangered,34038,15.6685,-91.7111,1
Liangmai,Vulnerable,34000,25.2794,93.6694,1
Zeme,Vulnerable,34000,25.5027,93.5595,1
Highland Mazatec,Vulnerable,33859,18.1307,-96.8436,1
Thangmi,Definitely endangered,33500,27.6969,86.0057,1
Nocte,Vulnerable,33000,27.1618,95.7952,1
Mayo,Critically endangered,32869,26.9114,-109.6271,1
Lauje,Vulnerable,32000,-0.4531,119.9816,1
Danuwar,Severely endangered,31849,26.9661,86.3223,1
Sirmaudi,Critically endangered,31144,30.9823,77.1569,1
Abaza,Definitely endangered,31000,44.1556,41.9368,1
Koch,Definitely endangered,31000,25.7603,90.3955,1
Amis,Vulnerable,30000,23.4456,121.4483,1
Biak,Vulnerable,30000,-0.3076,131.2207,1
Bumthang,Vulnerable,30000,27.492,90.7159,1
Burgenland Croatian,Definitely endangered,30000,47.8435,16.5179,1
Dzhidi,Definitely endangered,30000,33.5139,48.0102,1
Judeo-Berber (Israel),Severely endangered,30000,31.6767,34.5684,1
Kham,Definitely endangered,30000,28.4321,82.9635,1
Ladin,Definitely endangered,30000,46.5531,11.8597,1
Lepcha,Definitely endangered,30000,27.1153,88.4687,1
Maonan,Vulnerable,30000,24.8341,107.577,1
"Mok (Myanmar, Thailand)",Definitely endangered,30000,21.7333,99.7666,1
Moro,Definitely endangered,30000,10.8872,30.1904,1
Mulam,Vulnerable,30000,24.6341,108.2895,1
North Saami,Definitely endangered,30000,68.9099,22.9394,1
Quechua of Cajamarca,Severely endangered,30000,-7.1772,-78.673,1
Quichua (Pastaza),Definitely endangered,30000,-1.7575,-76.8603,1
Rushani,Definitely endangered,30000,37.8705,71.5979,1
Tagin,Vulnerable,30000,28.038,94.2022,1
Tialo,Vulnerable,30000,0.4888,120.8935,1
Tidikelt,Critically endangered,30000,26.8828,2.5488,1
Toba,Definitely endangered,30000,-25.958,-59.0625,1
Tundra Nenets,Definitely endangered,30000,67.5001,67.7856,1
Vojvodina Rusyn,Definitely endangered,30000,45.6351,19.1903,1
Wuse,Vulnerable,30000,24.878,109.1053,1
Agul,Definitely endangered,29399,41.7518,47.6875,1
Rutul,Definitely endangered,29383,41.5332,47.3181,1
Bateri,Definitely endangered,29000,34.9073,72.8675,1
Mzieme,Vulnerable,29000,25.6019,93.8891,1
Ghale,Vulnerable,28989,28.2501,84.718,1
Sierra Popoluca,Vulnerable,28700,18.245,-94.76,1
Kurux (Nepal),Vulnerable,28615,26.6032,87.2259,1
Deori,Definitely endangered,28000,27.1911,94.1528,1
Soyaltepec Mazatec,Vulnerable,27524,18.2499,-96.3995,1
Western Mazahua,Definitely endangered,27037,19.4372,-100.3552,1
Sibe,Severely endangered,27000,43.6599,81.3427,1
Isthmus Náhuatl,Vulnerable,26632,18.2209,-94.8382,1
Sunwar,Vulnerable,26611,27.3485,86.2337,1
Mancagne,Vulnerable,26450,12.7743,-15.6967,1
Gadaba,Critically endangered,26262,18.3858,82.7819,1
Banat Bulgarian,Definitely endangered,25000,45.4832,20.9069,1
Csángó Hungarian,Severely endangered,25000,46.7925,27.1911,1
Koda,Vulnerable,25000,22.1263,87.0776,1
Minhe Monguor,Definitely endangered,25000,36.4919,102.6452,1
Miskito (Honduras),Vulnerable,25000,15.3393,-84.6034,1
Olonetsian,Definitely endangered,25000,61.1273,32.8765,1
Saek,Definitely endangered,25000,19.3166,104.7833,1
Sioux,Vulnerable,25000,43.0588,-102.5244,1
Tamazight (Beni Iznassen),Definitely endangered,25000,34.7506,-2.1917,1
Tsakhur,Definitely endangered,25000,41.6523,46.9775,1
Warao,Definitely endangered,25000,8.6027,-61.3806,1
Majhi,Severely endangered,24664,27.9208,83.5082,1
Jone,Definitely endangered,24000,34.5947,103.5653,1
Andi,Definitely endangered,23729,42.7308,46.2963,1
Guambiano,Definitely endangered,23462,2.6138,-76.3906,1
Anal,Vulnerable,23000,24.1517,93.9385,1
Hawrami,Definitely endangered,23000,35.4259,46.2551,1
Juang,Definitely endangered,23000,21.0742,85.6164,1
Tiwa,Definitely endangered,23000,25.7801,92.5927,1
Embera (Panama),Vulnerable,22485,8.1179,-77.7429,1
Ediamat,Vulnerable,22025,12.2621,-16.5289,1
Mara,Definitely endangered,22000,23.5237,92.9003,1
Maring,Vulnerable,22000,24.6769,94.3835,1
Polci cluster,Definitely endangered,22000,9.9742,9.3328,1
Sarikoli,Definitely endangered,22000,37.9463,75.1272,1
Krongo,Definitely endangered,21688,10.585,29.8883,1
Ashtiani,Definitely endangered,21000,34.4861,51.0562,1
Khunsari,Definitely endangered,21000,32.8795,51.6796,1
Semnani,Definitely endangered,21000,34.8679,53.4924,1
Plains Cree,Vulnerable,20933,56.3544,-113.8345,1
Higher Reservoir Mazatec,Vulnerable,20665,18.158,-96.7045,1
Chilchotla Mazatec,Vulnerable,20585,18.2934,-96.7029,1
"Zapotec of the Valleys, middle northwest",Definitely endangered,20448,17.05,-96.6333,1
Aluo,Definitely endangered,20000,25.9368,102.1839,1
Bangni,Vulnerable,20000,28.0331,93.0651,1
Bru,Definitely endangered,20000,15.3174,105.4938,1
Cho-ca-nga-ca-kha,Definitely endangered,20000,27.4107,91.2277,1
Crimean Tatar (Dobruja),Severely endangered,20000,43.9414,28.3062,1
Dhimal,Severely endangered,20000,26.6192,87.4635,1
Griko (Salento),Severely endangered,20000,40.1578,18.2208,1
Kaiowá Guarani,Vulnerable,20000,-21.5812,-55.0759,1
Karelian (Karelia),Definitely endangered,20000,63.0474,33.4616,1
Khoirao,Vulnerable,20000,25.2198,94.1583,1
Manchad,Vulnerable,20000,32.6578,77.5415,1
Mariupolitan Greek,Severely endangered,20000,47.1364,37.5444,1
Padam,Vulnerable,20000,28.2463,95.3668,1
Pemon (Venezuela),Vulnerable,20000,5.1347,-61.853,1
Tacenwit,Vulnerable,20000,36.5703,2.2892,1
Tangwang,Definitely endangered,20000,35.7643,102.8979,1
Western Neo-Aramaic,Definitely endangered,20000,33.8339,36.5405,1
Yaghnobi,Definitely endangered,20000,38.5632,68.4475,1
Yaw,Definitely endangered,20000,21.6,94.8333,1
Yeyi,Definitely endangered,20000,-19.4562,23.2031,1
Boro,Definitely endangered,19878,10.3581,35.0024,1
Sorbian,Definitely endangered,19500,51.5001,14.4744,1
Biete,Definitely endangered,19000,25.6514,93.2409,1
Hrangkhol,Vulnerable,19000,24.1467,92.3071,1
Terena,Severely endangered,19000,-20.2841,-55.4638,1
Kati,Definitely endangered,18700,35.3845,71.3177,1
Kulung,Vulnerable,18686,27.518,86.9375,1
Kaingang,Definitely endangered,18500,-28.1495,-52.4707,1
Lowland Mazatec,Vulnerable,18389,18.0801,-96.5236,1
Vafsi,Definitely endangered,18000,34.0867,49.8861,1
Bassari,Vulnerable,17910,12.4419,-12.6617,1
Bayot,Vulnerable,17150,12.4218,-16.4149,1
Pochuri,Vulnerable,17000,25.6712,94.779,1
Tamahaq (Libya),Definitely endangered,17000,24.9611,10.1733,1
Swampy Cree,Vulnerable,16685,53.9849,-97.7626,1
Koraga,Critically endangered,16665,11.6952,75.6738,1
Oyda,Vulnerable,16597,5.9438,36.6503,1
Pangvali,Critically endangered,16285,33.4589,76.9152,1
Shipibo-Conibo,Definitely endangered,16085,-8.4289,-74.6411,1
Amba,Vulnerable,16000,0.6737,30.198,1
Tsez,Definitely endangered,15356,42.2376,45.8734,1
Bonan,Definitely endangered,15000,36.089,102.843,1
Chrau,Definitely endangered,15000,10.5634,107.1496,1
Dari,Definitely endangered,15000,31.8402,54.1625,1
Dzala,Vulnerable,15000,27.7078,91.3623,1
Ersu,Definitely endangered,15000,28.7778,102.1277,1
Gangte,Definitely endangered,15000,24.1968,93.587,1
Gurdu-Mbaaru,Severely endangered,15000,9.7415,10.4534,1
Ha-lung Tibetan,Definitely endangered,15000,27.6831,87.8256,1
Hlersu,Vulnerable,15000,24.3789,102.046,1
Juk,Definitely endangered,15000,15.3333,106.85,1
Kwama,Vulnerable,15000,9.5465,34.2059,1
Laemae,Severely endangered,15000,26.4179,98.7758,1
Lavua,Definitely endangered,15000,18.4483,98.1848,1
Macushi (Brazil),Vulnerable,15000,3.7765,-61.1279,1
Nahali,Definitely endangered,15000,21.4735,74.0258,1
Naluo,Vulnerable,15000,26.5895,100.8506,1
Nyoe,Definitely endangered,15000,14.9102,104.6049,1
O'odham (Akimel),Definitely endangered,15000,33.059,-112.0479,1
O'odham (Tohono),Definitely endangered,15000,31.9186,-111.8798,1
Paiwan,Vulnerable,15000,22.4313,120.7809,1
Rao,Definitely endangered,15000,25.871,107.0476,1
Semai,Severely endangered,15000,4.3039,101.445,1
Shatt,Severely endangered,15000,10.8117,29.7235,1
Siwi,Definitely endangered,15000,29.1905,25.5322,1
Tagargrent,Severely endangered,15000,30.9587,4.0209,1
Tayurayt,Vulnerable,15000,36.5648,1.9061,1
Totoli,Vulnerable,15000,0.8953,120.2838,1
Aruaco,Vulnerable,14799,10.0986,-73.5424,1
Yakkha,Critically endangered,14648,27.1908,87.3358,1
Kuruba,Critically endangered,14613,11.4369,76.3549,1
Tuamotuan,Definitely endangered,14400,-14.9354,-147.7455,1
Katla,Definitely endangered,14208,11.7329,29.3939,1
Garífuna (Belize),Vulnerable,14061,17.1833,-88.5833,1
Thulung,Definitely endangered,14034,27.4534,86.6423,1
Bawm,Definitely endangered,14000,22.1874,92.6477,1
Guajajara,Vulnerable,14000,-4.8282,-46.8017,1
Niuean,Definitely endangered,14000,-19.0491,-169.8706,1
Uhunduni,Vulnerable,14000,-4.2054,137.031,1
Gusilay,Vulnerable,13950,12.7019,-16.4382,1
Xavante,Vulnerable,13303,-14.4832,-53.5305,1
Dondo,Vulnerable,13000,0.747,120.4266,1
Khampti,Vulnerable,13000,27.8827,96.5093,1
Nalu,Definitely endangered,13000,10.9523,-14.7629,1
Tagoi,Severely endangered,13000,10.8252,30.1657,1
Karko,Definitely endangered,12986,11.964,29.4186,1
San Mateo del Mar Huave,Vulnerable,12667,16.2,-94.9833,1
Q'eqchi' (Belize),Vulnerable,12366,16.8107,-88.3999,1
Kadaru,Definitely endangered,12360,12.1789,30.2398,1
Mazatlán Mazatec,Vulnerable,12340,18.033,-96.8999,1
Badiaranke,Severely endangered,12205,12.4043,-13.5736,1
Alune,Vulnerable,12000,-3.0637,128.3752,1
Bangani,Critically endangered,12000,29.8692,79.0686,1
Chamalal,Definitely endangered,12000,42.5712,46.0739,1
Chru,Vulnerable,12000,11.4666,109.05,1
Hill Miri,Definitely endangered,12000,27.7078,94.0374,1
Jinuo,Definitely endangered,12000,21.4758,101.3111,1
Muya,Vulnerable,12000,30.2593,101.7497,1
Samei,Severely endangered,12000,25.0756,103.0133,1
Tajio,Vulnerable,12000,-0.0954,120.0173,1
Tobada',Extinct,12000,-2.019,119.4708,1
Yurt Tatar,Definitely endangered,12000,46.3943,48.3288,1
Yaqui (Mexico),Vulnerable,11806,27.6436,-110.296,1
Ch'orti' (Guatemala),Definitely endangered,11734,14.968,-89.2905,1
Filomeno Mata Totonac,Vulnerable,11710,20.198,-97.7022,1
Northern Totonac,Critically endangered,11529,20.2741,-97.955,1
Komo,Definitely endangered,11500,9.0804,34.0905,1
Tuwuli,Vulnerable,11400,7.0572,0.3845,1
Poqomam,Definitely endangered,11273,14.6455,-89.7274,1
Idu,Definitely endangered,11101,28.6496,95.8419,1
Kari'ña (Venezuela),Severely endangered,11000,8.4941,-64.0942,1
Machiguenga,Definitely endangered,11000,-11.8888,-72.9052,1
Piaroa (Venezuela),Vulnerable,11000,4.5435,-66.7089,1
Tuvaluan,Definitely endangered,11000,-8.5049,179.187,1
Waunana (Colombia),Vulnerable,11000,4.2806,-77.0581,1
Noon,Vulnerable,10925,14.8173,-16.5234,1
Sampang,Vulnerable,10810,27.257,86.9444,1
Central Alaskan Yupik (2),Vulnerable,10400,61.4387,-160.4882,1
Central Alaskan Yupik (Nuniak Island),Vulnerable,10400,59.8889,-166.289,1
Bukiyip,Vulnerable,10304,-3.4256,143.0886,1
Saparua,Definitely endangered,10216,-3.5757,128.6464,1
Darai,Severely endangered,10210,27.9264,84.331,1
Bandial,Vulnerable,10125,12.5317,-16.1553,1
Bongo,Definitely endangered,10084,6.1405,31.7999,1
Northwestern Tarahumara,Vulnerable,10031,27.9169,-107.0552,1
Algherese Catalan,Definitely endangered,10000,40.5638,8.3276,1
Aragonese,Definitely endangered,10000,42.2935,-0.4394,1
Baima,Vulnerable,10000,33.1531,103.8696,1
Bukharic,Definitely endangered,10000,39.8043,64.4224,1
Bunun,Vulnerable,10000,23.3624,121.1077,1
Burunge,Vulnerable,10000,-4.7297,35.7769,1
Chayahuita,Definitely endangered,10000,-5.3425,-76.6955,1
Cherokee (Oklahoma),Definitely endangered,10000,36.7544,-98.3569,1
Dalecarlian,Definitely endangered,10000,61.2385,14.0295,1
"Huitoto (Colombia, Peru)",Definitely endangered,10000,-3.0308,-71.8066,1
Hulaula (Israel),Severely endangered,10000,32.2128,34.9118,1
Karang,Vulnerable,10000,8.3093,15.3588,1
Karelian (Tver),Definitely endangered,10000,58.1533,36.101,1
Karone,Vulnerable,10000,12.7769,-16.7733,1
Kryz,Severely endangered,10000,41.1455,48.164,1
"Kurripako (Colombia, Venezuela)",Definitely endangered,10000,2.3723,-67.5659,1
Kurtöp,Vulnerable,10000,27.7127,90.9667,1
Lamgang,Critically endangered,10000,24.2569,94.0759,1
Miqie,Definitely endangered,10000,26.9053,100.8506,1
Mojo,Definitely endangered,10000,-14.966,-65.1708,1
Muot,Critically endangered,10000,8.0932,93.4963,1
Naiki,Critically endangered,10000,19.8287,78.2281,1
Ñandeva Guarani,Vulnerable,10000,-22.0652,-54.7558,1
Ngwaba,Severely endangered,10000,9.9904,12.81,1
North Frisian,Severely endangered,10000,54.7341,8.7478,1
Northern Khanty,Definitely endangered,10000,63.7047,66.676,1
Nyah Kur,Definitely endangered,10000,15.6587,101.5068,1
Nyenkha,Vulnerable,10000,27.4595,90.4119,1
Orang Hulu,Definitely endangered,10000,1.8871,103.984,1
Otoro,Severely endangered,10000,11.1864,30.6353,1
Solon,Definitely endangered,10000,48.166,119.4873,1
Southern Tujia,Severely endangered,10000,28.258,109.9398,1
Taba,Vulnerable,10000,0.0659,127.4084,1
Talu,Vulnerable,10000,26.5623,102.8506,1
Tamazight (Tunisia),Severely endangered,10000,36.0313,9.8767,1
Tayal,Vulnerable,10000,24.5458,121.3591,1
Temein,Severely endangered,10000,11.8377,29.4625,1
Temiar,Definitely endangered,10000,4.9493,101.4113,1
Trukhmen,Definitely endangered,10000,44.4886,44.5385,1
Vidunda,Vulnerable,10000,-6.8664,37.304,1
Kogui,Vulnerable,9911,10.8548,-74.0258,1
Paloor,Vulnerable,9680,14.7801,-16.8035,1
Awakatek (Guatemala),Vulnerable,9613,15.3429,-91.312,1
Choctaw (Louisiana),Vulnerable,9500,31.6822,-92.1252,1
Choctaw (Mississipi),Vulnerable,9500,32.7713,-89.1163,1
Choctaw (Oklahoma),Vulnerable,9500,34.1472,-94.81,1
Gawar-Bati,Definitely endangered,9500,35.158,71.4083,1
Taruang,Vulnerable,9332,28.12,95.88,1
Khaling,Definitely endangered,9288,27.5781,86.7163,1
Western Tarahumara,Vulnerable,9196,27.3361,-108.5007,1
Nunavimmiutitut,Vulnerable,9105,58.1665,-68.3605,1
Woods Cree,Vulnerable,9095,55.1711,-102.9061,1
Phula (Viet Nam),Definitely endangered,9046,22.7833,105.4666,1
Dol-po,Definitely endangered,9000,29.2193,83.0676,1
Helong,Severely endangered,9000,-10.1905,123.5247,1
Lisela,Vulnerable,9000,-3.2392,127.0239,1
Motuo Menba,Definitely endangered,9000,28.664,94.0347,1
Panamahka,Vulnerable,9000,14.2856,-84.5947,1
Zuni,Vulnerable,9000,35.082,-108.76,1
Mopán (Belize),Severely endangered,8980,16.2449,-88.8654,1
Tulishi,Severely endangered,8628,11.5984,29.0917,1
Central Cuicatec,Vulnerable,8621,17.8,-96.961,1
Ts'amay,Definitely endangered,8621,5.4382,37.2463,1
Phalura,Definitely endangered,8600,35.7264,71.7434,1
Northern Popoloc,Vulnerable,8597,18.6818,-97.658,1
Ixcatlán Mazatec,Vulnerable,8593,18.1447,-96.4855,1
Patla-Chicontla Totonac,Severely endangered,8590,20.1644,-97.6927,1
Toram,Severely endangered,8456,11.1581,19.6023,1
Northwestern Tlapanec,Vulnerable,8409,17.5595,-98.9332,1
Dene,Vulnerable,8195,56.4807,-109.4127,1
Micmac (Massachusetts),Definitely endangered,8145,42.3589,-71.0578,1
Argobba,Critically endangered,8000,10.5958,39.9792,1
Austral dialects,Definitely endangered,8000,-23.3775,-149.4909,1
Belanda Bor,Definitely endangered,8000,6.4954,27.7404,1
Feroge,Vulnerable,8000,8.5049,25.7189,1
Hachijō,Definitely endangered,8000,33.11,139.7891,1
Inga,Severely endangered,8000,1.1658,-77.0011,1
Kanga,Severely endangered,8000,10.844,29.4708,1
Lajia,Definitely endangered,8000,23.7439,110.0526,1
Lakha,Definitely endangered,8000,27.5898,90.3735,1
Mbya Guarani (Paraguay),Definitely endangered,8000,-26.5099,-55.2832,1
Mundurukú,Vulnerable,8000,-8.1027,-57.3486,1
Ojibwe,Severely endangered,8000,46.0706,-93.6677,1
Quichua (Salasaca),Definitely endangered,8000,-1.3511,-78.6511,1
Rongpo,Vulnerable,8000,30.7229,79.7387,1
Sanyi,Severely endangered,8000,24.9262,102.5134,1
Temuan,Severely endangered,8000,3.3709,101.984,1
Tingal,Definitely endangered,8000,12.238,31.1215,1
Wampis,Vulnerable,8000,-3.4476,-77.7941,1
Wunai Bunu,Definitely endangered,8000,24.4146,107.8378,1
Yanesha,Severely endangered,8000,-10.3743,-75.2343,1
Mam (Mexico),Severely endangered,7977,17.3661,-93.5334,1
Pana,Definitely endangered,7800,13.165,-3.4277,1
Macushi (Guyana),Vulnerable,7750,3.6888,-59.4799,1
Chukchi,Severely endangered,7742,67.6248,176.1767,1
Cabécar,Vulnerable,7622,9.9012,-83.6844,1
Awa Cuaiquer,Critically endangered,7500,1.4939,-78.5742,1
Lishana Deni (Israel),Severely endangered,7500,31.7748,35.1013,1
Central Pame,Vulnerable,7399,21.9208,-99.3741,1
Puinave,Definitely endangered,7377,4.434,-68.1591,1
Mebengokre,Vulnerable,7266,-6.5569,-52.4707,1
Tunebo,Definitely endangered,7231,6.4463,-72.0483,1
Quechua of Peruvian Amazonia,Vulnerable,7200,-2.3723,-74.1137,1
Asur,Definitely endangered,7000,22.4719,84.9023,1
Bashkardi,Definitely endangered,7000,28.5169,57.7551,1
Burji,Vulnerable,7000,2.1857,37.9248,1
Choyi,Definitely endangered,7000,30.8519,99.6659,1
Gazi,Definitely endangered,7000,32.8036,51.6211,1
Guichong,Vulnerable,7000,30.8148,101.7021,1
Karagash,Definitely endangered,7000,47.2643,47.2412,1
Natanzi,Severely endangered,7000,33.452,51.3006,1
Nayini,Severely endangered,7000,32.8519,53.1573,1
Parya,Severely endangered,7000,38.5094,68.0932,1
Segeju,Severely endangered,7000,-4.8173,39.0783,1
Sivandi,Definitely endangered,7000,29.9168,51.5945,1
Soi,Definitely endangered,7000,31.6533,55.6787,1
Tucano (Brazil),Vulnerable,7000,0.1757,-67.2363,1
Wapishana (Guyana),Vulnerable,7000,2.3065,-59.6997,1
Yulu,Vulnerable,7000,8.3854,24.1754,1
Zhaba,Vulnerable,7000,31.4,100.4734,1
Sakapultek,Definitely endangered,6973,14.9752,-91.0527,1
Chara,Vulnerable,6932,6.479,36.3647,1
Kosraean,Severely endangered,6900,5.322,162.9904,1
Waunana (Panama),Severely endangered,6882,8.2984,-78.1018,1
San Francisco del Mar Huave,Critically endangered,6874,16.3333,-94.5166,1
Northern East Cree,Vulnerable,6870,53.6916,-78.8011,1
Micmac (Canada),Vulnerable,6850,45.9646,-60.6172,1
Northern Tepehuán,Definitely endangered,6802,26.4258,-107.2683,1
Miju,Vulnerable,6700,28.1155,96.2896,1
Rio Grande Keresan,Definitely endangered,6685,35.5147,-106.3655,1
Western Mazatec,Vulnerable,6639,18.1351,-96.9057,1
Bussa,Vulnerable,6624,5.7225,37.1406,1
Beli,Definitely endangered,6600,6.4736,29.2675,1
Chesu,Definitely endangered,6600,24.4211,102.0459,1
Thuri,Vulnerable,6600,8.4397,25.4333,1
Karata,Definitely endangered,6574,42.5874,46.3348,1
Saulteau,Vulnerable,6558,50.5573,-98.6562,1
Kumāle,Severely endangered,6533,27.788,84.548,1
Lower Northwestern Otomí,Vulnerable,6509,20.1865,-100.1469,1
Dimme,Vulnerable,6501,5.9548,36.2988,1
Chiquitano (Bolivia),Definitely endangered,6500,-16.5835,-61.6113,1
Tumtum,Severely endangered,6500,10.477,30.4321,1
Bezhta,Definitely endangered,6461,42.1369,46.1508,1
Thakali,Vulnerable,6441,28.7146,83.6478,1
Dongotono,Vulnerable,6219,4.965,35.321,1
Mawé,Vulnerable,6219,-3.8642,-56.7773,1
Shor,Severely endangered,6210,53.0544,87.7478,1
Central Tlapanec,Vulnerable,6191,17.2624,-98.7482,1
Oji-Cree,Vulnerable,6110,53.8141,-94.8977,1
Keiga,Severely endangered,6072,11.3184,29.696,1
Ampibabo Lauje,Vulnerable,6000,0.3295,120.1904,1
Cashinahua (Brazil),Vulnerable,6000,-9.2603,-71.5304,1
Geji cluster,Severely endangered,6000,10.196,9.5581,1
Mbya Guarani (Brazil),Vulnerable,6000,-30.1451,-50.625,1
Moklen,Definitely endangered,6000,8.1953,98.3036,1
Nauruan,Severely endangered,6000,-0.53,166.9221,1
Nheengatu / Yeral (Brazil),Severely endangered,6000,-0.4833,-67.0166,1
Parachi,Definitely endangered,6000,34.4658,68.637,1
Quechua of San Martín,Severely endangered,6000,-6.5336,-76.4428,1
Sawkna,Critically endangered,6000,27.252,17.7539,1
Sulung,Definitely endangered,6000,27.839,92.8784,1
Tindi,Definitely endangered,6000,42.466,46.1453,1
Western Apache,Definitely endangered,6000,33.2563,-110.4637,1
Yanomami (Brazil),Vulnerable,6000,3.0746,-63.457,1
Yazgulami,Severely endangered,6000,38.1982,71.4276,1
Chantyal,Definitely endangered,5912,28.4493,83.4054,1
Mortlockese,Definitely endangered,5904,5.5811,153.5668,1
Baníwa do Içana,Vulnerable,5811,1.2743,-68.291,1
"Akawaio (Guyana, Venezuela)",Definitely endangered,5800,5.3753,-60.5126,1
Akhvakh,Definitely endangered,5793,42.472,46.3238,1
Veps,Severely endangered,5753,60.3269,34.8046,1
Qikiqtaaluk nigiani,Vulnerable,5740,63.7577,-68.5178,1
Sipakapense,Definitely endangered,5687,15.2121,-91.6335,1
Bribri (Costa Rica),Vulnerable,5647,9.5596,-83.3073,1
Bainouk-Gunyaamolo,Vulnerable,5635,12.7421,-16.1141,1
Kwatay,Severely endangered,5625,12.4204,-16.7596,1
Baheng (Viet Nam),Vulnerable,5569,22.8166,106.35,1
Central Zoque,Definitely endangered,5500,17.0965,-93.2095,1
Dameli,Severely endangered,5500,35.578,71.8684,1
Sak (Bangladesh),Severely endangered,5500,21.5041,92.2055,1
Yidgha,Definitely endangered,5500,36.0024,71.6006,1
Southeastern Tarahumara,Vulnerable,5406,26.0891,-106.9645,1
Chimané,Vulnerable,5300,-15.2629,-66.8518,1
Dilling,Definitely endangered,5295,12.0178,29.663,1
San Dionisio del Mar Huave,Definitely endangered,5165,16.3166,-94.75,1
Lafofa,Severely endangered,5140,10.3716,30.6243,1
Akeu,Definitely endangered,5000,21.5833,101.0166,1
Anung (China),Critically endangered,5000,26.7368,98.7766,1
Bagvalal,Definitely endangered,5000,42.5247,46.192,1
Bambassi,Definitely endangered,5000,9.7469,34.7662,1
Barí,Vulnerable,5000,9.0261,-73.2678,1
Bartangi,Severely endangered,5000,38.048,71.8286,1
Bokar,Vulnerable,5000,28.8735,94.3807,1
Brokpa,Definitely endangered,5000,27.3766,91.9981,1
Creek,Definitely endangered,5000,35.6319,-95.9616,1
Cubeo (Colombia),Vulnerable,5000,1.5,-70.5,1
Dagur (Hailar),Definitely endangered,5000,48.6111,119.7949,1
Damal,Vulnerable,5000,-4.2806,137.0324,1
Dhaiso,Definitely endangered,5000,-5.0745,38.4741,1
Gorum,Definitely endangered,5000,18.667,83.0346,1
Guarayu,Definitely endangered,5000,-15.919,-62.8747,1
Gutnish,Definitely endangered,5000,57.3027,18.5284,1
Hopi,Vulnerable,5000,35.8721,-110.6205,1
Ilue,Critically endangered,5000,4.9185,8.2397,1
Jibbali,Severely endangered,5000,18.0623,52.4267,1
Kalasha,Severely endangered,5000,35.6684,71.7201,1
Kami,Severely endangered,5000,-6.8937,37.1337,1
Kathu,Definitely endangered,5000,24.136,105.249,1
Khojki,Severely endangered,5000,23.6193,58.5653,1
Khwe,Definitely endangered,5000,-18.271,21.4892,1
Kom,Definitely endangered,5000,24.0414,93.6639,1
Korandje,Severely endangered,5000,29.4049,-3.2605,1
Lachi,Definitely endangered,5000,22.5,104.1333,1
Mak,Definitely endangered,5000,25.5532,107.3809,1
Manihiki,Definitely endangered,5000,-10.4,-161,1
Megleno-Romanian,Severely endangered,5000,41.1042,22.2025,1
Miji,Definitely endangered,5000,27.3351,92.5735,1
Mo'ang (China),Definitely endangered,5000,23.8421,103.9116,1
Mo'ang (Viet Nam),Definitely endangered,5000,22.7833,105.3666,1
Molise Croatian,Severely endangered,5000,41.8787,14.7065,1
Moroccan Judeo-Arabic (Morocco),Severely endangered,5000,34.0435,-5.0097,1
Namuyi,Vulnerable,5000,28.0727,101.9565,1
Padoe,Vulnerable,5000,-2.6467,121.2615,1
Patamona (Guyana),Vulnerable,5000,4.5873,-59.8095,1
Pu,Critically endangered,5000,8.2549,93.1022,1
Pume,Definitely endangered,5000,6.7518,-68.247,1
Singpho,Definitely endangered,5000,27.5569,96.7456,1
Turi,Definitely endangered,5000,21.8411,87.2973,1
Udi (Azerbaijan),Severely endangered,5000,41.0689,47.4609,1
Yecuana (Venezuela),Vulnerable,5000,4.8501,-64.5117,1
Jirel,Definitely endangered,4919,27.6419,86.2123,1
Dolgan,Definitely endangered,4865,71.3851,97.3388,1
Romani (Colombia),Vulnerable,4858,,,1
Tsum,Definitely endangered,4786,28.4723,85.008,1
Northern Tlapanec,Vulnerable,4771,17.4203,-98.7814,1
Taroko,Vulnerable,4750,24.0916,121.5218,1
Kivallirmiutut,Vulnerable,4675,61.0982,-94.1201,1
Puebla Mazatec,Vulnerable,4660,18.476,-96.8351,1
Zapotec of Petapa,Definitely endangered,4613,16.8333,-95.1166,1
Dungmali,Definitely endangered,4609,27.1874,87.1902,1
Saryg Yugur,Severely endangered,4600,39.2747,98.8439,1
Qikiqtaaluk uannangani,Vulnerable,4550,69.3878,-81.615,1
Afitti,Severely endangered,4512,12.4419,30.7534,1
Nomatsiguenga,Severely endangered,4500,-11.3292,-74.3664,1
Piapoko,Definitely endangered,4500,4.0396,-68.0712,1
Tokelauan,Severely endangered,4500,-9.1699,-171.8206,1
Wotu,Vulnerable,4500,-2.6303,120.888,1
Wambule,Vulnerable,4471,27.1746,86.4363,1
Southern East Cree,Vulnerable,4455,50.587,-73.6365,1
Arbore,Definitely endangered,4441,5.069,36.892,1
Ebang,Severely endangered,4412,11.313,30.5886,1
Tafi,Vulnerable,4400,6.73,0.4421,1
Puma,Severely endangered,4310,26.9692,86.9004,1
Gyele,Definitely endangered,4280,2.2241,9.8986,1
Bwisi,Definitely endangered,4248,-3.5572,11.4477,1
Eastern Montagnais,Vulnerable,4180,50.2136,-66.193,1
Atikamekw,Vulnerable,4155,47.2104,-74.3827,1
Western Zoque,Vulnerable,4100,16.9063,-91.7333,1
Acoma-Laguna,Definitely endangered,4000,34.8964,-107.5816,1
Aka,Definitely endangered,4000,27.1666,92.6312,1
Baga Manduri,Definitely endangered,4000,10.0986,-14.0405,1
Baga Sitemu,Severely endangered,4000,10.1094,-14.1586,1
Botlikh,Definitely endangered,4000,42.6602,46.2222,1
Bunan,Definitely endangered,4000,32.7503,76.2451,1
Cashinahua (Peru),Definitely endangered,4000,-10.3581,-71.5869,1
Cha'palaa,Definitely endangered,4000,0.9386,-79.0055,1
Evenki (Manchuria),Severely endangered,4000,50.34,123.43,1
Gazhuo,Definitely endangered,4000,24.0959,102.5463,1
Godoberi,Definitely endangered,4000,42.643,46.1027,1
"Kari'ña (Guyana, Suriname)",Severely endangered,4000,6.8828,-60.2929,1
Lishan Didan (Israel),Severely endangered,4000,32.0383,34.7827,1
Maleng,Definitely endangered,4000,18.0166,105,1
Napu,Vulnerable,4000,-1.2882,120.2536,1
Rahambuu,Vulnerable,4000,-3.1898,121.0858,1
Shingsaba,Vulnerable,4000,27.7163,87.4731,1
Sinkiang Dagur,Definitely endangered,4000,46.7737,83.0017,1
Taa,Definitely endangered,4000,-24.1367,20.1049,1
Tennet,Vulnerable,4000,4.8611,33.2226,1
Wapishana (Brazil),Definitely endangered,4000,2.8113,-61.2377,1
Yagua,Definitely endangered,4000,-3.3598,-72.3779,1
Yanomám,Vulnerable,4000,3.3818,-63.8085,1
Yanomami (Venezuela),Vulnerable,4000,2.5918,-64.7314,1
Younuo Bunu,Definitely endangered,4000,25.1463,106.5405,1
Zenaga (Mauritania),Severely endangered,4000,17.3086,-13.0078,1
Baghati,Critically endangered,3976,31.194,77.0471,1
Bharmauri,Definitely endangered,3976,32.4912,76.8383,1
Uspantek,Vulnerable,3971,15.3475,-90.8684,1
Khang Quang Lam,Severely endangered,3921,22.0333,102.6666,1
Konni,Vulnerable,3800,10.3311,-1.6973,1
Tocho,Severely endangered,3800,10.8764,30.1135,1
Mixtec of the Puebla-Oaxaca border,Definitely endangered,3791,18.1333,-97.6833,1
Nupri,Definitely endangered,3776,28.6384,84.6079,1
Ayoreo,Definitely endangered,3700,-18.719,-59.6228,1
Moyon,Definitely endangered,3700,24.4171,94.378,1
Utsat,Definitely endangered,3700,18.2727,109.3871,1
Nayi,Vulnerable,3656,7.2698,36.1724,1
Mussau-Emira,Definitely endangered,3651,-1.4774,149.6392,1
Narim,Definitely endangered,3623,4.9048,34.2224,1
Garífuna (Guatemala),Vulnerable,3564,15.8268,-88.7506,1
Nachiring,Severely endangered,3553,27.4144,86.7521,1
Eastern Popoloc,Vulnerable,3544,18.3322,-97.3471,1
Nding,Critically endangered,3513,10.4121,30.6024,1
Anung (Myanmar),Severely endangered,3500,27.2,98.6333,1
Camsá,Definitely endangered,3500,0.8788,-76.7724,1
Crow,Definitely endangered,3500,45.5963,-107.4613,1
Sak (Myanmar),Vulnerable,3500,21.2333,93.0761,1
Shwai,Critically endangered,3500,11.3184,30.4156,1
Wano,Definitely endangered,3500,-3.5463,137.9058,1
Northwestern Ojibwe,Vulnerable,3465,52.0016,-95.4274,1
Bakpinka,Critically endangered,3416,5.3644,8.2397,1
Morokodo,Severely endangered,3400,6.0313,29.7949,1
Eloxochitlán Mazatec,Vulnerable,3384,18.1754,-96.8765,1
Menik,Definitely endangered,3375,12.7528,-12.2717,1
Teribe (Panama),Definitely endangered,3305,9.4472,-82.5166,1
Tima,Severely endangered,3305,11.7033,29.1934,1
Mursi,Vulnerable,3278,5.5831,36.5075,1
Pendau,Vulnerable,3200,0.1922,120.0091,1
Ayautla Mazatec,Vulnerable,3192,18.019,-96.7441,1
Yucatec,Definitely endangered,3155,17.0922,-89.1221,1
Sayultec,Definitely endangered,3150,17.8816,-94.9597,1
Eastern Tlapanec,Vulnerable,3088,17.8135,-98.604,1
Juhur (Caucasus),Definitely endangered,3016,42.0044,48.2409,1
Awjila,Severely endangered,3000,26.6278,24.5214,1
Baleasang,Definitely endangered,3000,-0.0494,119.685,1
Benga,Definitely endangered,3000,0.9997,9.8657,1
Besoa,Vulnerable,3000,-1.7163,120.4211,1
Boni,Definitely endangered,3000,-0.8294,40.8142,1
Bonjo,Severely endangered,3000,1.7712,17.9598,1
Brokshat,Definitely endangered,3000,34.6478,76.4978,1
Budukh,Severely endangered,3000,41.1207,48.3233,1
Dahaalik,Critically endangered,3000,15.6917,40.0671,1
East Greenlandic,Definitely endangered,3000,65.6061,-37.6858,1
Eastern Khanty,Definitely endangered,3000,61.2491,74.5092,1
Fyem,Severely endangered,3000,9.6332,8.8632,1
Geta?,Severely endangered,3000,18.2293,82.727,1
Gura,Severely endangered,3000,10.075,6.8499,1
Harsusi,Definitely endangered,3000,19.9372,56.2637,1
Hozo,Definitely endangered,3000,9.3352,34.53,1
Jemez,Vulnerable,3000,35.6151,-106.7242,1
Kamara,Definitely endangered,3000,9.0858,-2.2576,1
Kapingamarangi,Severely endangered,3000,1.0828,154.8081,1
Koitabu,Vulnerable,3000,-9.346,147.1179,1
Kuk,Definitely endangered,3000,6.4326,10.2365,1
Lai,Definitely endangered,3000,24.4871,105.216,1
Limirong Tibetan,Definitely endangered,3000,29.9164,81.7617,1
Lishanid Noshan (Israel),Severely endangered,3000,31.7188,34.7772,1
Lude,Severely endangered,3000,61.5867,33.6813,1
"Mbya Guarani (Argentina, Uruguay)",Severely endangered,3000,-29.6116,-57.4804,1
"Mohawk (Akwesasne, St. Regis)",Definitely endangered,3000,45.0033,-74.6497,1
Nanay,Severely endangered,3000,49.3537,136.5243,1
Palu'e,Definitely endangered,3000,-8.3242,121.7106,1
Panare,Vulnerable,3000,6.5445,-66.4233,1
Pilagá,Vulnerable,3000,-25.4035,-58.6669,1
Pitjantjatjara,Vulnerable,3000,-26.0719,129.9517,1
Pukur,Definitely endangered,3000,10.4013,-14.4799,1
Rotuman,Vulnerable,3000,-12.5063,177.0776,1
Savi,Definitely endangered,3000,35.2085,71.845,1
Sherdukpen,Vulnerable,3000,27.1935,92.351,1
Shira Yugur,Severely endangered,3000,39.1002,99.2065,1
Takahanyilang,Critically endangered,3000,6.85,93.8726,1
U,Definitely endangered,3000,23.4844,99.8404,1
Ulithian,Severely endangered,3000,10.0229,139.6801,1
Waima'a,Definitely endangered,3000,-8.4995,126.3372,1
Warlpiri,Vulnerable,3000,-20.8177,131.6601,1
Yukpa,Vulnerable,3000,9.7956,-72.9382,1
Western Montagnais,Vulnerable,2980,48.9635,-68.5729,1
Waiwai (Brazil),Vulnerable,2916,-0.7909,-58.2714,1
Jersey French,Severely endangered,2874,49.2211,-2.1368,1
Bahing,Definitely endangered,2765,27.3126,86.5571,1
Stoney,Vulnerable,2765,51.161,-114.8533,1
Southwestern Tepehuan,Vulnerable,2756,22.8349,-105.7276,1
Northern Mansi,Severely endangered,2746,62.6539,63.1494,1
Bisu,Definitely endangered,2740,19.715,99.6789,1
Wari,Definitely endangered,2721,-11.7275,-65.0061,1
Pakan,Definitely endangered,2700,23.7447,105.2235,1
Yami,Vulnerable,2700,22.0512,121.5403,1
Ko,Critically endangered,2683,10.6714,30.8386,1
Yuracaré,Definitely endangered,2675,-16.6888,-65.4345,1
Aimol,Critically endangered,2643,24.4971,93.6145,1
Kohi,Vulnerable,2641,27.3607,86.8661,1
Chatino of the western lowlands,Definitely endangered,2640,16.3049,-97.5466,1
Bolo,Definitely endangered,2627,-10.5526,14.9633,1
Logol,Severely endangered,2600,10.8521,30.6463,1
Sila,Definitely endangered,2600,22.3094,102.041,1
Pisaflores Tepehua,Vulnerable,2578,20.6883,-98.0125,1
Xerente,Severely endangered,2569,-9.3356,-48.2227,1
Bribri (Panama),Severely endangered,2521,9.4813,-82.6174,1
Achuar,Definitely endangered,2500,-2.8991,-77.4316,1
Bai,Definitely endangered,2500,8.0592,25.5102,1
Banka,Definitely endangered,2500,11.4261,-5.6744,1
Culina (Peru),Definitely endangered,2500,-9.6224,-70.7958,1
Gadang,Definitely endangered,2500,10.3473,17.2485,1
Khinalug,Severely endangered,2500,41.1579,48.0706,1
Laomian (China),Definitely endangered,2500,23.7645,100.0195,1
Laomian (Myanmar),Definitely endangered,2500,22.6833,99.25,1
Lhokpu,Definitely endangered,2500,26.9514,89.2968,1
Martuwangka,Vulnerable,2500,-24.1975,122.9589,1
Mayoruna (Peru),Vulnerable,2500,-5.5285,-73.4765,1
Pingelapese,Severely endangered,2500,6.2279,160.7107,1
Rapanui,Severely endangered,2500,-27.108,-109.3579,1
Remo,Severely endangered,2500,19.1659,82.6391,1
Roshorvi,Severely endangered,2500,38.1086,72.1719,1
Sanglechi,Severely endangered,2500,36.6585,71.4784,1
Semelai,Severely endangered,2500,3.1761,102.4818,1
Urak Lawoi (Malaysia),Definitely endangered,2500,6.4194,99.7869,1
Urak Lawoi (Thailand),Definitely endangered,2500,7.7756,98.3306,1
Zirenkel,Definitely endangered,2500,12.136,18.4735,1
Vumbu,Definitely endangered,2460,-1.8783,10.816,1
Mopán (Guatemala),Severely endangered,2455,16.5144,-89.4167,1
Cuiba,Severely endangered,2445,6.4463,-69.9389,1
Raji,Severely endangered,2413,27.9721,82.3135,1
Highland Chontal,Severely endangered,2410,16.2832,-95.857,1
Yasa,Definitely endangered,2401,2.3284,9.8464,1
Bumbita Arapesh,Vulnerable,2353,-3.6449,142.8002,1
Mang (China),Definitely endangered,2300,22.8293,103.1039,1
Mang (Viet Nam),Definitely endangered,2300,22.35,102.9666,1
Tlachichilco Tepehua,Definitely endangered,2234,20.6205,-98.1991,1
Blackfoot (Canada),Definitely endangered,2200,49.3535,-113.2884,1
Jaya,Severely endangered,2200,12.187,18.1645,1
Karipuna do Amapá,Vulnerable,2200,3.3379,-51.6796,1
Kulfa,Definitely endangered,2200,9.9742,19.1848,1
Krahô,Vulnerable,2184,-8.4071,-47.2851,1
Kristang,Severely endangered,2150,2.1935,102.256,1
Yine,Definitely endangered,2150,-11.4584,-73.0261,1
North Alaskan Inupiaq (Kotzebue Sound),Severely endangered,2144,66.8972,-162.5855,1
North Alaskan Inupiaq (North Slope),Severely endangered,2144,71.2725,-156.7749,1
Seward Peninsula Inupiaq (King Island),Critically endangered,2144,64.9728,-168.0616,1
Seward Peninsula Inupiaq (Little Diomede Island),Critically endangered,2144,65.755,-168.9167,1
Seward Peninsula Inupiaq (Norton Sound),Critically endangered,2144,64.5433,-163.029,1
Katukína-Kanamarí,Vulnerable,2100,-5.6159,-68.7304,1
Tiwi,Vulnerable,2100,-11.6091,130.8911,1
Zaozou,Vulnerable,2100,26.1554,99.2944,1
Ngäbere (Costa Rica),Definitely endangered,2041,8.4723,-82.9907,1
Aiton,Severely endangered,2000,26.6523,94.2901,1
Anindilyakwa,Vulnerable,2000,-13.9987,136.582,1
Apurinã,Definitely endangered,2000,-5.4847,-63.8964,1
Arrernte,Vulnerable,2000,-24.1668,132.0996,1
Ashkun,Definitely endangered,2000,34.9973,71.0746,1
Ata,Critically endangered,2000,9.6081,122.9155,1
Athpahariya,Definitely endangered,2000,26.952,87.3399,1
Ava-Guaraní,Definitely endangered,2000,-23.1403,-64.3359,1
Bayso,Definitely endangered,2000,6.4081,37.749,1
Birhor,Critically endangered,2000,21.7594,85.935,1
Boano,Vulnerable,2000,0.4724,120.9979,1
Bori,Definitely endangered,2000,28.9889,94.4439,1
Chepya,Definitely endangered,2000,21.3833,101.8166,1
Chilisso,Severely endangered,2000,35.2136,73.2396,1
Culina (Brazil),Vulnerable,2000,-7.1008,-68.7744,1
Damana,Definitely endangered,2000,10.9196,-73.4985,1
Duguza,Definitely endangered,2000,9.9039,9.1186,1
Galibi Marworno,Vulnerable,2000,3.4256,-52.0312,1
Gats'ama - Ganjule - Harro,Definitely endangered,2000,5.9548,37.5292,1
Gebe,Vulnerable,2000,-0.1922,129.5397,1
Ghadames,Vulnerable,2000,30.1166,9.5251,1
Griko (Calabria),Severely endangered,2000,37.9961,15.9329,1
Huilliche,Critically endangered,2000,-40.4803,-73.5424,1
Ik,Severely endangered,2000,3.5024,34.1894,1
Jangshung,Definitely endangered,2000,31.7748,78.4753,1
Jero,Vulnerable,2000,27.2241,86.3909,1
Kari'ña (French Guyana),Definitely endangered,2000,5.5066,-53.6572,1
Khamnigan Mongol,Definitely endangered,2000,50.3454,114.1094,1
Kona,Severely endangered,2000,9.0587,11.2829,1
Koreguaje,Definitely endangered,2000,1,-75,1
Koryak,Severely endangered,2000,61.8561,168.6621,1
Kota,Critically endangered,2000,11.4154,76.8576,1
Logorik,Critically endangered,2000,11.1433,29.8306,1
Lule Saami,Severely endangered,2000,67.272,17.7978,1
Luro,Critically endangered,2000,7.915,93.3837,1
Mambai,Severely endangered,2000,9.6007,14.0899,1
Milang,Definitely endangered,2000,28.488,95.2954,1
Mocoví,Definitely endangered,2000,-27.6056,-59.7656,1
Momuna,Vulnerable,2000,-5,139,1
Mpi,Definitely endangered,2000,18.2554,100.2227,1
Muda,Vulnerable,2000,21.8421,100.6851,1
Munji,Severely endangered,2000,36.0379,70.6723,1
Nguon,Vulnerable,2000,17.5333,105.3833,1
Nheengatu / Yeral (Venezuela),Severely endangered,2000,1.2303,-66.8408,1
Nihali,Critically endangered,2000,20.5402,76.0913,1
Nyishangba,Definitely endangered,2000,28.6423,84.1017,1
Ottawa (Walpole Island),Severely endangered,2000,42.6068,-82.5195,1
Prasun,Definitely endangered,2000,35.3543,71.26,1
Rukai,Vulnerable,2000,22.792,120.8104,1
Sáliba,Severely endangered,2000,5.3097,-69.873,1
Sangkong,Vulnerable,2000,21.5158,100.6957,1
Sarwa,Definitely endangered,2000,10.5958,17.0397,1
Shoshoni (Idaho),Severely endangered,2000,43.0438,-112.4629,1
Shoshoni (Nevada),Severely endangered,2000,40.0358,-113.9835,1
Shoshoni (Wyoming),Severely endangered,2000,43.014,-108.8209,1
Tai Phake,Severely endangered,2000,27.5033,95.2185,1
Tamazight (Arzew),Critically endangered,2000,35.5869,-0.4737,1
Tanglang,Vulnerable,2000,26.0863,99.7119,1
Tchitchege,Definitely endangered,2000,-1.8508,13.612,1
Tinan,Definitely endangered,2000,32.519,77.6733,1
Tsafiki,Definitely endangered,2000,-0.25,-79.15,1
Ukhwejo,Severely endangered,2000,3.3626,16.0565,1
Urarina,Vulnerable,2000,-4.3464,-75.3002,1
Ushojo,Definitely endangered,2000,35.0209,72.897,1
Waigali,Definitely endangered,2000,35.1895,71.1941,1
Waotededo,Vulnerable,2000,-1.1864,-76.6296,1
Wotapuri-Katarqalai,Definitely endangered,2000,34.4166,70.3333,1
Wutun,Definitely endangered,2000,35.791,102.4365,1
Candoshi,Definitely endangered,1900,-3.7107,-76.9042,1
Hupda (Brazil),Vulnerable,1900,0.7909,-68.247,1
Mixtec of the central Ravine,Definitely endangered,1878,17.9666,-96.8333,1
Kendeje,Definitely endangered,1859,13.6299,21.5771,1
Hunzib,Definitely endangered,1839,42.1654,46.2991,1
Tchumbuli,Critically endangered,1838,8.7113,2.1533,1
Cashibo-Cacataibo,Definitely endangered,1800,-8.9393,-75.0915,1
Grass Koiari,Vulnerable,1800,-9.4558,147.5559,1
Isirawa,Vulnerable,1800,-1.8783,138.5485,1
Lanoh,Critically endangered,1800,5.2509,101.0206,1
Lemolang,Vulnerable,1800,-2.6303,120.1849,1
Nila (Seram Island),Definitely endangered,1800,-3.2173,128.9849,1
Shixing,Definitely endangered,1800,28.5263,100.4734,1
Chuj (Mexico),Critically endangered,1771,16.1203,-92.0407,1
Darma,Definitely endangered,1761,30.0037,80.5641,1
Kung,Severely endangered,1750,6.5227,10.1074,1
Lokono (Guyana),Critically endangered,1750,6.2934,-58.0957,1
Byangsi,Definitely endangered,1734,30.0595,80.7824,1
Pasing,Definitely endangered,1732,21.1254,101.4697,1
Yamphu,Definitely endangered,1722,27.5935,87.3316,1
Andio,Vulnerable,1700,-0.8514,123.1457,1
Cheyenne (Montana),Definitely endangered,1700,45.5495,-106.5263,1
Kumzari,Severely endangered,1700,26.1936,56.2431,1
Quechua of Yauyos,Critically endangered,1700,-12.9081,-75.6958,1
Bainouk-Samik,Severely endangered,1685,12.5733,-16.2652,1
Côông,Definitely endangered,1676,22.5943,102.7455,1
Dogrib,Vulnerable,1675,62.8292,-115.9904,1
Upland Yuman,Vulnerable,1650,36.2377,-112.7094,1
Eastern Cuicatec,Vulnerable,1641,17.9666,-96.7166,1
Tamazight (Ait Rouadi),Extinct,1637,32.5745,-5.9655,1
Woleaian,Severely endangered,1631,7.3515,143.8769,1
Huehuetla Tepehua,Definitely endangered,1603,20.46,-98.0761,1
Kadiwéu,Definitely endangered,1600,-20.5222,-56.7237,1
Southern Tiwa (Isleta Pueblo),Definitely endangered,1600,34.9057,-106.7066,1
Southern Tiwa (Sandia Pueblo),Definitely endangered,1600,35.2516,-106.565,1
Tewa (Arizona),Definitely endangered,1600,35.8334,-110.3798,1
Tewa (New Mexico),Severely endangered,1600,36.053,-106.0708,1
ǁGana,Vulnerable,1550,-21.7824,21.8971,1
Akwáwa,Vulnerable,1548,-5.2441,-52.7014,1
Northern Cuicatec,Vulnerable,1503,17.9511,-96.7384,1
Chiquihuitlán Mazatec,Definitely endangered,1502,17.9953,-96.7449,1
Apinajé,Vulnerable,1500,-6.0317,-47.5604,1
Bashkarik,Severely endangered,1500,35.2893,72.6168,1
Chintang,Severely endangered,1500,26.9367,87.1991,1
Forest Nenets,Severely endangered,1500,64.9188,77.7941,1
Hupda (Colombia),Definitely endangered,1500,0.3845,-70.1367,1
Jah Hut,Severely endangered,1500,3.6452,102.3065,1
Jeri,Severely endangered,1500,9.2647,-5.8666,1
Jonkor Bourmataguil,Severely endangered,1500,11.4261,19.0145,1
K'emant,Severely endangered,1500,12.9349,37.2326,1
Kanashi,Definitely endangered,1500,32.0406,77.1075,1
Karajá,Vulnerable,1500,-11.0921,-50.3393,1
Karelian (Tikhvin),Severely endangered,1500,59.601,33.3544,1
Kendem,Severely endangered,1500,5.7061,9.6377,1
Khamba,Definitely endangered,1500,29.0105,94.7653,1
Lishpa,Definitely endangered,1500,27.3327,92.384,1
Mayoruna (Brazil),Vulnerable,1500,-3.3379,-64.8413,1
Mescalero-Chiricahua Apache (New Mexico),Definitely endangered,1500,33.1514,-105.7942,1
Numao Bunu,Definitely endangered,1500,24.3902,107.2701,1
Orang Seletar,Severely endangered,1500,1.3387,103.464,1
Palenque Creole,Definitely endangered,1500,10.0952,-75.1142,1
Pong,Definitely endangered,1500,18.4666,105.05,1
Pyuma,Vulnerable,1500,22.8027,121.0748,1
Saaroa,Critically endangered,1500,23.1283,120.7062,1
Saluan,Vulnerable,1500,-0.8129,122.871,1
Semaq Beri,Critically endangered,1500,4.2012,102.8443,1
Talodi,Critically endangered,1500,10.6902,30.3964,1
Wayana (Suriname),Vulnerable,1500,2.7455,-54.58,1
Wik Mungkan,Vulnerable,1500,-12.9403,141.9873,1
Natsilingmiutut,Vulnerable,1455,68.643,-95.8863,1
Movima,Severely endangered,1452,-13.7954,-65.4345,1
Ngombe,Definitely endangered,1450,3.9492,15.2352,1
Cinta Larga,Vulnerable,1440,-11.4154,-59.7216,1
Dupaninan Agta,Vulnerable,1400,17.9682,122.0361,1
Tese,Critically endangered,1400,11.2161,29.8471,1
Bororo,Definitely endangered,1390,-15.5172,-53.1024,1
Puluwat,Severely endangered,1364,7.5803,149.425,1
Kanela Rankokamekra,Vulnerable,1337,-6.075,-44.9121,1
Saba,Definitely endangered,1335,11.1487,18.0175,1
Kurripako (Brazil),Vulnerable,1332,0.7001,-68.3789,1
Triw,Definitely endangered,1328,15.6833,107.2,1
Guernsey French,Severely endangered,1327,49.4502,-2.5927,1
Paafang,Severely endangered,1318,7.6198,155.1571,1
Chɨlɨng,Definitely endangered,1314,26.9483,87.2527,1
Zapotec of the Valleys north,Severely endangered,1303,17.0666,-96.65,1
Cypriot Arabic,Severely endangered,1300,35.3196,33.338,1
Palikur (Brazil),Vulnerable,1300,4.0396,-51.7236,1
Sanenyo,Critically endangered,1300,7.9504,93.576,1
Tecóatl Mazatec,Vulnerable,1300,18.1653,-96.9124,1
Xinka,Critically endangered,1283,14.3447,-90.2603,1
Ozomatlán Totonac,Critically endangered,1276,20.1766,-98.0527,1
Kāgate,Definitely endangered,1273,27.5449,86.2925,1
Maxakali,Vulnerable,1271,-16.5519,-40.3417,1
Murik,Vulnerable,1256,-3.8368,144.2807,1
Pengo,Critically endangered,1254,19.0621,83.4851,1
Marúbo,Vulnerable,1252,-6.0968,-70.2246,1
Aivilingmiutut,Vulnerable,1245,64.1657,-83.243,1
Besme,Severely endangered,1228,9.6386,16.018,1
Oirata,Definitely endangered,1221,-8.0755,127.1777,1
Lohorung,Severely endangered,1207,27.4266,87.2498,1
Harakmbut,Definitely endangered,1206,-12.9403,-70.2685,1
Buyang,Severely endangered,1200,23.4146,105.7632,1
Dakka,Vulnerable,1200,-3.316,119.2071,1
Mah Meri,Severely endangered,1200,2.836,101.4299,1
Manjui,Definitely endangered,1200,-23.1201,-62.7539,1
Te'un (Seram Island),Definitely endangered,1200,-3.1843,128.9465,1
Tsou,Vulnerable,1200,23.5174,120.8564,1
Ujir,Definitely endangered,1200,-5.6105,134.2776,1
White Gelao (China),Severely endangered,1200,26.4894,105.021,1
Dakkang,Definitely endangered,1198,15.6333,107.25,1
Northern Algonquin,Vulnerable,1180,48.0616,-77.3521,1
Akawaio (Brazil),Vulnerable,1170,4.1711,-60.249,1
Huehuetlán Mazatec,Vulnerable,1169,18.1964,-96.9471,1
Trio (Brazil),Vulnerable,1156,1.7136,-55.2392,1
Savo,Definitely endangered,1147,-9.1292,159.8071,1
Tektitek,Definitely endangered,1144,15.3073,-92.0609,1
Fwâi,Vulnerable,1131,-20.7048,164.9034,1
Waimirí-Atroarí,Vulnerable,1120,-1.0985,-60.8203,1
Guayabero,Definitely endangered,1118,2.6028,-72.3999,1
Fagauvea (Northern),Vulnerable,1107,-20.4089,166.5444,1
Fagauvea (Southern),Vulnerable,1107,-20.7381,166.4126,1
Fania,Severely endangered,1100,10.0581,18.3993,1
Ubi,Severely endangered,1100,12.1534,18.6946,1
Warnang,Severely endangered,1100,10.6538,30.6298,1
Itzá,Critically endangered,1094,16.9838,-89.899,1
Mixtec of the southwest of Puebla,Definitely endangered,1074,18.6333,-98.0666,1
Lowland Chontal,Critically endangered,1060,16.0286,-95.6683,1
Koireng,Critically endangered,1056,24.2319,93.7463,1
Chipaya,Definitely endangered,1050,-19.2074,-68.2031,1
Mokilese,Critically endangered,1050,6.6864,159.7631,1
Western Náhuatl,Severely endangered,1041,18.3745,-103.3026,1
Acatepec Mazatec,Vulnerable,1038,18.1621,-96.8766,1
Mixtec of Villa de Tututepec,Definitely endangered,1019,16.1333,-97.6,1
Toda,Critically endangered,1006,11.3184,76.8273,1
Adabe,Vulnerable,1000,-8.2549,125.5737,1
Alutor,Severely endangered,1000,60.2016,165.4238,1
Arapaho (Wyoming),Severely endangered,1000,43.0139,-108.8214,1
Beeke,Severely endangered,1000,0.9997,28.7951,1
Blackfoot (United States of America),Definitely endangered,1000,48.5699,-113.0918,1
Bohtan Neo-Aramaic,Severely endangered,1000,41.5579,45.0219,1
Bola,Definitely endangered,1000,25.0638,98.2414,1
Bong'om,Definitely endangered,1000,1.1315,35.0134,1
Bora,Vulnerable,1000,-2.7455,-71.8835,1
Central Siberian Yupik (St. Lawrence Island),Definitely endangered,1000,63.7444,-171.7242,1
Chali,Definitely endangered,1000,27.301,91.2991,1
Cherokee (North Carolina),Severely endangered,1000,35.113,-84.0588,1
Cocama-Cocamilla (Peru),Severely endangered,1000,-4.8282,-74.2565,1
Dair,Severely endangered,1000,12.517,30.5914,1
Dakpa,Definitely endangered,1000,27.3937,91.8965,1
Dampelas,Definitely endangered,1000,0.2005,119.8965,1
Danaw,Critically endangered,1000,21.192,97.3937,1
Ega,Severely endangered,1000,5.8018,-5.4492,1
El Hugeirat,Severely endangered,1000,12.3131,28.4243,1
Faghani,Vulnerable,1000,-10.4337,161.5979,1
Fongoro,Severely endangered,1000,11.1029,22.7197,1
Gambiri,Severely endangered,1000,34.9017,70.9085,1
Gongduk,Vulnerable,1000,27.086,91.2002,1
Gorap,Definitely endangered,1000,2.1528,128.2516,1
Guugu Yimidhirr,Vulnerable,1000,-14.8598,144.7338,1
Gyem,Critically endangered,1000,10.3865,9.3122,1
Habu,Vulnerable,1000,-8.7819,126.0021,1
Hawaiian,Critically endangered,1000,21.9226,-160.1147,1
Hértevin,Critically endangered,1000,37.9268,42.5473,1
Hu,Definitely endangered,1000,22.1743,100.9264,1
Hualapai,Vulnerable,1000,35.5279,-113.4297,1
Hung,Definitely endangered,1000,18.9062,105.05,1
Inkhokvari,Definitely endangered,1000,42.3981,46.0299,1
Ishkashimi,Severely endangered,1000,36.6915,71.7668,1
Iyive,Severely endangered,1000,6.4354,9.5278,1
Jiongnai Bunu,Definitely endangered,1000,23.3902,108.5135,1
Kaande,Severely endangered,1000,-0.1318,11.8103,1
Kaco',Definitely endangered,1000,13.934,107.4222,1
Kadu,Severely endangered,1000,24.2042,95.6332,1
Kairui-Midiki,Vulnerable,1000,-8.7222,126.2878,1
Kari,Severely endangered,1000,4.8392,25.5432,1
Kayabi,Vulnerable,1000,-11.1972,-53.2342,1
Khowa,Definitely endangered,1000,27.2546,92.5323,1
Kodeoha,Vulnerable,1000,-3.4147,120.9155,1
Kujarge,Definitely endangered,1000,11.749,22.2431,1
Kukatja,Vulnerable,1000,-21.2074,126.4746,1
Kuot,Vulnerable,1000,-3.0692,151.5234,1
Lokono (Suriname),Severely endangered,1000,5.6487,-55.1074,1
Mahongwe,Severely endangered,1000,1.0216,13.9031,1
Manchurian Ölöt,Severely endangered,1000,48.1953,124.2993,1
May,Definitely endangered,1000,18.0623,105.5786,1
Mbara,Severely endangered,1000,10.8009,15.6335,1
Mech,Severely endangered,1000,26.5688,89.1979,1
Mòcheno,Definitely endangered,1000,46.1194,11.3258,1
Naueti,Vulnerable,1000,-8.7357,126.7053,1
North Greenlandic,Definitely endangered,1000,77.4815,-69.3511,1
Ormuri,Definitely endangered,1000,32.518,69.783,1
Paiter,Vulnerable,1000,-11.1245,-61.3476,1
Pareci,Definitely endangered,1000,-14.3525,-58.0174,1
Pasi,Definitely endangered,1000,28.1834,95.2651,1
Resian,Definitely endangered,1000,46.3734,13.3058,1
Sach,Definitely endangered,1000,17.78,105.7666,1
Sake,Severely endangered,1000,-0.0247,11.7691,1
Saterlandic,Severely endangered,1000,53.1059,7.6787,1
She,Critically endangered,1000,23.3333,115.2459,1
Shumashti,Severely endangered,1000,34.6108,70.7569,1
Sighu,Severely endangered,1000,-0.0549,13.5461,1
Sobei,Definitely endangered,1000,-1.8632,138.7408,1
Thavung (Laos),Definitely endangered,1000,18.4666,104.6666,1
Tirma,Critically endangered,1000,6.4899,34.3212,1
Tombelala,Vulnerable,1000,-2.5315,121.9454,1
Toto,Critically endangered,1000,26.6867,89.5056,1
Trio (Suriname),Vulnerable,1000,2.1528,-56.3818,1
Tum,Definitely endangered,1000,18.7,105.05,1
Tuotomb,Severely endangered,1000,4.4449,10.371,1
Yatê,Severely endangered,1000,-7.0136,-37.0458,1
Zaiwa,Definitely endangered,1000,28.4735,96.4764,1
Zay,Severely endangered,1000,8.0728,38.8476,1
Zenaga (Western Sahara),Critically endangered,1000,22.2687,-13.7109,1
|Gui,Vulnerable,1000,-21.8385,21.7858,1
ǁAni,Definitely endangered,1000,-18.6462,22.1319,1
Buglé,Definitely endangered,993,8.5858,-82.3856,1
Ka'apór,Vulnerable,991,-2.8991,-46.3183,1
Hadza,Vulnerable,975,-3.401,35.3897,1
Kunwinjku,Vulnerable,974,-12.1333,133.4014,1
Bakairi,Vulnerable,950,-14.4213,-54.0305,1
Drubea,Vulnerable,946,-22.0347,166.5527,1
Namonuito,Severely endangered,944,8.6299,150.0128,1
Hya,Severely endangered,940,10.3311,13.5269,1
Machineri (Brazil),Vulnerable,937,-10.5742,-70.4882,1
South Slavey,Definitely endangered,920,61.8154,-121.3346,1
Wajãpi,Vulnerable,905,0.747,-52.8442,1
Mewahang,Severely endangered,904,27.5441,87.1401,1
Awapit,Severely endangered,900,1.0985,-78.706,1
Chimila,Severely endangered,900,10.0986,-73.894,1
Kua,Definitely endangered,900,-22.7106,26.4605,1
Njalgulgule,Severely endangered,900,8.4452,25.3015,1
Pech,Severely endangered,900,15.0819,-85.5552,1
Rikbaktsa,Severely endangered,900,-10.6174,-58.2714,1
Caac,Vulnerable,890,-20.3883,164.5614,1
Inuinnaqtun,Definitely endangered,890,67.8443,-115.2742,1
Voh-Koné dialects,Definitely endangered,878,-20.9665,164.7866,1
Kuna (Colombia),Severely endangered,876,7.8633,-76.9042,1
Dení,Vulnerable,875,-6.5773,-68.1591,1
Tarao,Critically endangered,870,24.297,93.4497,1
Santa María del Mar Huave,Severely endangered,862,16.2166,-94.85,1
Nukuoro,Definitely endangered,860,3.8574,154.9786,1
Mixtec of Santa Cruz Itundujia,Definitely endangered,851,16.7666,-97.6,1
"Zapotec of the Southern mountains, northeast",Definitely endangered,849,16.2666,-96.2833,1
Kumak,Vulnerable,847,-20.1278,164.0259,1
Pukapukan,Definitely endangered,840,-10.871,-165.8441,1
Lola,Vulnerable,830,-6.3316,134.8818,1
Ashaninka (Brazil),Vulnerable,813,-9.3786,-73.1414,1
Ottawa (Canada),Severely endangered,810,46.1519,-82.2243,1
Bati,Severely endangered,800,4.2012,10.7858,1
Chorote Iyojwa'ja,Severely endangered,800,-24.287,-60.3808,1
Eman,Severely endangered,800,6.0531,9.7338,1
Isu,Severely endangered,800,4.1994,9.5745,1
Jamamadí,Vulnerable,800,-9.0424,-68.3789,1
Javaé,Definitely endangered,800,-11.1568,-50.4711,1
Nubaca,Severely endangered,800,4.2971,10.7446,1
Panasuan,Definitely endangered,800,-2.2516,119.5806,1
Piaroa (Colombia),Definitely endangered,800,4,-68.6666,1
Taos,Definitely endangered,800,36.4717,-105.5596,1
Taulil,Vulnerable,800,-4.5435,152.0397,1
Tuyuca (Brazil),Vulnerable,800,0.4394,-66.8847,1
Kaike,Definitely endangered,794,28.9642,82.9819,1
Kildin Saami,Severely endangered,787,68.0075,35.0079,1
Ese eja,Definitely endangered,782,-12.5867,-69.0161,1
Central Cagayan Agta,Vulnerable,779,17.9891,121.8603,1
Mixtec of Santa Inés de Zaragoza,Definitely endangered,775,17.2333,-97.1666,1
Ocopetatillo Mazatec,Vulnerable,757,18.1856,-96.9113,1
Jaqaru,Severely endangered,750,-12.7488,-75.8248,1
Waiwai (Suriname),Critically endangered,750,2.1528,-56.206,1
Laal,Critically endangered,749,9.9607,17.6083,1
Ulcha,Critically endangered,732,52.0457,140.4162,1
Jawe,Vulnerable,729,-20.4913,164.696,1
Maslam,Severely endangered,723,12.136,14.6914,1
Nambiquara do Sul,Vulnerable,721,-13.2506,-59.5404,1
North Slavey,Definitely endangered,720,65.2161,-123.4362,1
Gitksan,Severely endangered,710,55.355,-127.6828,1
A'ingae / Cofan (Ecuador),Definitely endangered,700,0.0659,-76.7065,1
Animere,Critically endangered,700,7.6129,0.4064,1
Batek,Critically endangered,700,4.6695,102.5051,1
Enggano,Vulnerable,700,-5.4191,102.2717,1
Indri,Severely endangered,700,8.4397,25.5926,1
Kalaw Lagaw Ya,Definitely endangered,700,-10.0828,142.1081,1
Lakon,Vulnerable,700,-14.251,167.422,1
Mok (China),Definitely endangered,700,21.5158,100.221,1
Ngaanyatjarra,Vulnerable,700,-26.037,124.541,1
Ngatikese Men's Creole,Definitely endangered,700,5.8305,157.2308,1
Piratapuya (Brazil),Severely endangered,700,0.5712,-66.7089,1
Mountain Guarijío,Vulnerable,696,27.8758,-108.553,1
Nivkh (Sakhalin),Severely endangered,688,51.7814,143.1628,1
Krikati,Vulnerable,682,-5.8674,-46.7468,1
Dakota,Definitely endangered,675,49.8461,-100.5035,1
Carrier,Severely endangered,660,54.2395,-125.7621,1
Matlatzinca,Definitely endangered,651,19.0479,-100.2197,1
Kasanga,Critically endangered,650,12.2702,-16.1553,1
Wanano / Kotiria (Brazil),Vulnerable,650,0.6152,-67.5,1
Central Popoloc,Severely endangered,641,18.5842,-97.9295,1
Eastern Ojibwe,Severely endangered,620,44.8381,-80.1983,1
River Guarijío,Vulnerable,617,27.5196,-109.2525,1
Yuhup (Brazil),Vulnerable,617,-1.0546,-69.3896,1
Ocoyoacac Otomí,Severely endangered,609,19.2716,-99.4613,1
Akum,Critically endangered,600,6.73,9.9316,1
Blablanga,Definitely endangered,600,-8.206,159.4638,1
Bubia,Severely endangered,600,4.0204,9.2037,1
Chickasaw,Severely endangered,600,34.6,-96.8161,1
Desano (Brazil),Definitely endangered,600,0.0878,-67.9394,1
Faetar,Definitely endangered,600,41.3265,15.1721,1
Hixkaryána,Vulnerable,600,-0.5493,-58.5131,1
Hoava,Vulnerable,600,-8.1883,157.6036,1
Hodi,Vulnerable,600,6.075,-65.6323,1
Iñapari,Critically endangered,600,-12.0822,-69.7412,1
Koke,Severely endangered,600,10.8575,18.1315,1
Kowiai,Vulnerable,600,-3.9437,134.0881,1
Kuikuro,Vulnerable,600,-12.35,-53.21,1
Laiyolo,Definitely endangered,600,-6.3862,120.4733,1
Mo'da,Critically endangered,600,6.5008,29.9377,1
Northern Selkup,Severely endangered,600,65.7035,82.4441,1
Penrhyn,Severely endangered,600,-9.0153,-158.0218,1
Pintupi,Vulnerable,600,-22.8882,128.3203,1
Piratapuya (Colombia),Critically endangered,600,0.8333,-69.5,1
Siona / Secoya (Ecuador),Severely endangered,600,-0.0659,-76.3989,1
Sonsorol,Severely endangered,600,7.4278,134.5495,1
Teanu,Definitely endangered,600,-11.6219,166.9633,1
Yaminahua (Brazil),Vulnerable,600,-10.6606,-69.6972,1
Andoke,Severely endangered,597,-0.769,-72.2351,1
Southern Tlapanec,Severely endangered,592,16.7325,-98.6034,1
Orowe,Definitely endangered,587,-21.4223,165.4678,1
Mosetén,Severely endangered,585,-15.4113,-67.5,1
Chatong,Definitely endangered,580,15.65,107.1166,1
Norfolk-Pitcairn (Norfolk),Definitely endangered,580,-29.0225,167.9425,1
Nunatsiavummiutut,Definitely endangered,575,56.532,-61.7408,1
Shuswap,Definitely endangered,570,51.7886,-122.2286,1
Xaragure,Vulnerable,566,-21.8054,166.4964,1
Tapirapé,Vulnerable,564,-10.6606,-50.4602,1
Lacandón,Critically endangered,563,16.706,-91.0641,1
Zapotec of Zimatlán de Álvarez,Definitely endangered,562,16.8666,-96.7833,1
Chilcotin,Definitely endangered,560,52.031,-123.1678,1
Chácobo,Definitely endangered,550,-11.3454,-65.8135,1
Gao,Vulnerable,550,-8.3514,159.8167,1
Geme,Critically endangered,550,8.4941,20.6378,1
Karore,Vulnerable,550,-6.1542,149.8205,1
Yuhup (Colombia),Definitely endangered,550,-0.5493,-69.9169,1
Western Tlapanec,Vulnerable,549,17.4101,-99.2423,1
Hinukh,Definitely endangered,548,42.1801,45.977,1
Anuki,Definitely endangered,542,-9.6522,149.7656,1
Imeraguen,Definitely endangered,534,18.9166,-15.996,1
Narpa,Definitely endangered,533,28.7315,84.261,1
Akatek (Mexico),Vulnerable,532,16.7823,-93.1061,1
Naskapi,Vulnerable,525,54.903,-66.802,1
Archi,Definitely endangered,524,41.9839,46.8127,1
Yawanawá,Vulnerable,519,-10.8333,-70.0927,1
Raute,Severely endangered,518,28.9744,80.7969,1
Seri,Vulnerable,518,29.2333,-112.2,1
Western Popoloc,Severely endangered,516,18.4141,-98.0176,1
Yaqui (United States of America),Definitely endangered,510,32.1158,-111.0638,1
Kalapalo,Vulnerable,506,-12.1574,-53.2521,1
Nganasan,Severely endangered,505,72.816,91.582,1
Jakaltek (Mexico),Severely endangered,504,16.3137,-93.2084,1
Zapotec of San Antonino el Alto,Definitely endangered,504,16.8166,-97.0333,1
Purum,Critically endangered,503,24.3521,93.5925,1
Aheu,Definitely endangered,500,18.4333,104.5,1
Amahuaca,Severely endangered,500,-10.8764,-72.29,1
Anfillo,Critically endangered,500,8.5049,34.7415,1
Arbanasi,Severely endangered,500,44.0994,15.2545,1
Baniva,Severely endangered,500,2.8333,-67.5219,1
Bataan Ayta,Definitely endangered,500,14.4324,120.4788,1
Bats,Severely endangered,500,42.0982,45.0878,1
Black Mountain,Definitely endangered,500,27.1955,90.43,1
Busoa,Vulnerable,500,-5.5722,122.6074,1
Chong,Severely endangered,500,12.9506,102.0374,1
Domaaki,Severely endangered,500,36.0979,73.9627,1
Ganan,Severely endangered,500,24.2317,95.3778,1
Havasupai,Definitely endangered,500,36.2429,-112.6897,1
Kensiw (Thailand),Severely endangered,500,7.1712,99.7915,1
Khmin,Vulnerable,500,22.0469,100.8065,1
Khvarshi,Definitely endangered,500,42.3417,46.1212,1
Kundal Shahi,Definitely endangered,500,34.55,73.8833,1
Laghuu,Definitely endangered,500,23.6166,105.6833,1
Laha (Lao Cai),Definitely endangered,500,22.0333,103.75,1
Laha (Son La),Definitely endangered,500,21.4666,103.75,1
Langa,Severely endangered,500,6.5404,11.6427,1
Laxudumau,Vulnerable,500,-2.8922,151.2467,1
Majera,Critically endangered,500,11.3231,14.9839,1
Maliseet-Passamaquoddy,Severely endangered,500,44.9572,-67.0496,1
Mikasuki,Vulnerable,500,26.3202,-80.9877,1
Mlomp,Critically endangered,500,12.7421,-16.4904,1
Onin,Vulnerable,500,-2.9745,132.2383,1
Ormu,Vulnerable,500,-2.5136,140.6675,1
Palikur (French Guyana),Severely endangered,500,3.908,-51.9873,1
Pemon (Brazil),Vulnerable,500,4.664,-60.216,1
Quechua of Chachapoyas,Critically endangered,500,-6.2606,-77.7722,1
Samatu,Critically endangered,500,24.2105,98.9655,1
Seke,Vulnerable,500,28.9282,83.8249,1
Siona / Secoya (Colombia),Critically endangered,500,0.493,-76.2464,1
South Saami,Severely endangered,500,64.2063,13.4802,1
Taikat,Definitely endangered,500,-2.8429,140.846,1
Taloki,Definitely endangered,500,-4.5928,122.8628,1
Tamki,Critically endangered,500,11.48,18.2125,1
Tawahka,Severely endangered,500,15.3602,-85.1373,1
Thavung (Thailand),Severely endangered,500,17.3168,103.5142,1
Tomadino,Definitely endangered,500,-2.5836,121.9729,1
Toratán,Definitely endangered,500,1.0354,124.7985,1
Tunisian Judeo-Arabic (Tunisia),Critically endangered,500,33.8795,10.0634,1
Ulwa,Severely endangered,500,12.8894,-83.5779,1
"Ute (Colorado, Ute Mountain)",Severely endangered,500,37.2105,-108.7223,1
Walmajarri,Definitely endangered,500,-19.9939,125.5297,1
Warekena (Venezuela),Severely endangered,500,2.5479,-67.2802,1
Boguru,Critically endangered,494,4.3902,29.2016,1
Pukobyê,Vulnerable,494,-5.3316,-46.7138,1
Swoeng,Definitely endangered,492,15.3333,106.75,1
Wali,Critically endangered,487,11.9372,29.3005,1
Gavião do Pará,Vulnerable,476,-5.1784,-48.999,1
Malecite,Definitely endangered,475,46.8023,-67.6686,1
Ninam (Brazil),Vulnerable,466,3.1185,-62.9736,1
Zoró,Vulnerable,464,-10.9519,-61.0729,1
Sanema (Brazil),Vulnerable,462,2.8113,-63.0615,1
Ixtenco Otomí,Severely endangered,461,19.2495,-97.8943,1
Ottawa (Michigan),Critically endangered,459,43.5971,-84.7752,1
Kanela Apaniekra,Vulnerable,458,-6.2716,-46.1865,1
Satawal,Severely endangered,458,7.3406,147.041,1
Chatino of Zacatepec,Definitely endangered,453,16.1333,-97.35,1
Demisa,Definitely endangered,450,-2.7016,136.6699,1
Koasati (Louisiana),Definitely endangered,450,30.4855,-92.8494,1
Koasati (Texas),Definitely endangered,450,30.7155,-94.6965,1
Nanti,Vulnerable,450,-11.6629,-72.6965,1
Shabo,Severely endangered,450,7.327,35.2935,1
Sharanahua,Severely endangered,450,-10.3365,-70.9277,1
Siona  Secoya (Peru),Definitely endangered,450,-0.5712,-74.8828,1
Tolomako,Definitely endangered,450,-15.1834,166.8438,1
Enawenê-Nawê,Vulnerable,445,-12.5223,-59.7656,1
Valle Nacional Chinantec,Definitely endangered,442,17.7747,-96.3034,1
Gavião de Rondônia,Vulnerable,436,-10.4445,-61.6992,1
Tabasco Náhuatl,Critically endangered,434,18.0026,-93.3722,1
Sera,Severely endangered,432,-3.0033,141.9158,1
Yecuana (Brazil),Vulnerable,430,2.8552,-63.3251,1
Alabugat Tatar,Definitely endangered,422,45.4447,47.0324,1
"Zapotec of the Southern mountains, eastern lowlands",Definitely endangered,420,16.2,-96.7,1
Western Otomí,Severely endangered,415,19.4335,-100.3456,1
Moose Cree,Vulnerable,405,52.2827,-81.6276,1
Tlahuica,Severely endangered,405,18.9664,-99.4137,1
Katukina do Acre,Severely endangered,404,-6.4899,-69.2578,1
Abai Sungai,Definitely endangered,400,5.587,118.3695,1
Barasana (Colombia),Critically endangered,400,0.0769,-70.3894,1
Beezen,Severely endangered,400,6.7518,10.0744,1
Buga,Critically endangered,400,8.2495,25.7574,1
Cheyenne (Oklahoma),Severely endangered,400,35.6022,-97.9766,1
Cimbrian,Definitely endangered,400,45.867,11.4268,1
Cobiana,Critically endangered,400,12.4017,-16.3229,1
Dagur (Amur),Critically endangered,400,49.5252,127.5402,1
Dahalo,Severely endangered,400,-2.2625,40.7537,1
Émérillon,Severely endangered,400,2.8991,-52.8881,1
Gagauz (Maritime),Severely endangered,400,43.2932,27.9602,1
Hijuk,Critically endangered,400,4.2861,10.4919,1
Hobyot,Severely endangered,400,16.6388,53.0612,1
Inari Saami,Severely endangered,400,68.8446,27.2817,1
Istriot,Severely endangered,400,45.0541,13.7246,1
Kalao,Definitely endangered,400,-7.3134,121.0034,1
Kamaiurá,Vulnerable,400,-12.1655,-53.4292,1
Kickapoo (Kansas),Severely endangered,400,39.6972,-95.7089,1
Kickapoo (Oklahoma),Severely endangered,400,35.4245,-97.0713,1
Kickapoo (Texas),Severely endangered,400,28.6147,-100.4386,1
Kiowa,Severely endangered,400,35.1016,-98.6197,1
Koroni,Definitely endangered,400,-2.6412,121.9894,1
Lamongse,Critically endangered,400,7.3134,93.6968,1
Ndunda,Severely endangered,400,6.9482,10.9698,1
Northern Paiute (Nevada),Definitely endangered,400,41.9979,-117.7193,1
Pupeo,Definitely endangered,400,23.1666,105.1,1
Rapa,Severely endangered,400,-27.8973,-143.5034,1
Red Gelao (China),Critically endangered,400,26.2553,105.8571,1
Sengseng,Vulnerable,400,-6.0681,150.2792,1
Sirionó,Severely endangered,400,-14.557,-63.7316,1
Talondo,Definitely endangered,400,-2.3723,119.3774,1
"Yaminahua (Bolivia, Peru)",Severely endangered,400,-10.7469,-71.7297,1
Mixtec of Zapotitlán,Severely endangered,396,18.3333,-97.4666,1
Sanema (Venezuela),Vulnerable,393,4.4669,-64.1931,1
Ts'ixa,Definitely endangered,390,-18.9894,23.692,1
Pirahã,Vulnerable,389,-6.9264,-61.1279,1
Mixtec of San Pedro Tidaá,Severely endangered,384,17.35,-97.3833,1
Yerong,Severely endangered,380,23.0732,106.0789,1
A'ingae / Cofan (Colombia),Severely endangered,379,0.4525,-76.9191,1
Halkomelem,Severely endangered,375,48.7715,-123.6678,1
Yudja,Vulnerable,362,-10.956,-53.3235,1
Kisêdjê,Vulnerable,351,-11.5795,-53.031,1
Auye,Vulnerable,350,-3.5627,135.9915,1
Awyi,Vulnerable,350,-2.943,140.6359,1
Bierebo,Vulnerable,350,-16.6539,168.1539,1
Fayu,Vulnerable,350,-3.1,136.8,1
Labo,Vulnerable,350,-16.4492,167.4481,1
Mra,Critically endangered,350,28.3914,93.3837,1
Myky,Vulnerable,350,-12.5331,-59.5019,1
Na,Critically endangered,350,28.4638,93.3041,1
Nadëb,Definitely endangered,350,-1.9771,-67.0166,1
Taje,Critically endangered,350,-0.747,120.086,1
Tenharim,Severely endangered,350,-8.4071,-61.1499,1
Mako,Critically endangered,345,4.2149,-65.7421,1
Barām,Critically endangered,342,28.041,84.629,1
Ikpeng,Vulnerable,342,-11.7376,-53.616,1
Gardiol,Severely endangered,340,39.4658,15.9933,1
Araweté,Vulnerable,339,-5.1347,-52.3388,1
Northern Pame,Definitely endangered,337,21.9955,-99.6458,1
Thompson,Severely endangered,335,50.1909,-120.8431,1
Serili,Vulnerable,328,-8.1136,129.9023,1
Kaningara,Vulnerable,327,-4.5784,143.3612,1
Misantla Totonac,Critically endangered,325,19.865,-96.7755,1
Nemi,Definitely endangered,325,-20.6494,164.6878,1
Nambiquara do Norte,Vulnerable,323,-11.8028,-59.8095,1
Matís,Vulnerable,322,-6.1405,-70.664,1
Wauja,Vulnerable,321,-12.2554,-53.5899,1
Benggoi,Definitely endangered,320,-3.0748,130.0918,1
Karitiana,Vulnerable,320,-9.7307,-64.0942,1
Apalai,Vulnerable,317,1.2084,-55.1074,1
Kwak'wala,Critically endangered,315,50.7338,-127.4982,1
Southern Zoque,Definitely endangered,312,16.7138,-93.1194,1
Tilung,Definitely endangered,310,27.1501,86.5077,1
Opuuo,Critically endangered,307,8.3202,33.8873,1
Panará,Vulnerable,306,-9.449,-54.5965,1
Aka,Critically endangered,300,11.0112,34.2333,1
Bakole,Critically endangered,300,4.5764,8.8439,1
Bathari,Critically endangered,300,17.8846,55.5853,1
Brokkat,Definitely endangered,300,27.5618,90.6152,1
Duwet,Vulnerable,300,-6.4763,146.8377,1
Faire Atta,Severely endangered,300,18.027,120.4929,1
Green Gelao (China),Critically endangered,300,27.7022,106.0952,1
Green Gelao (Viet Nam),Critically endangered,300,23.1333,105.25,1
Guatuso,Severely endangered,300,10.6723,-84.8256,1
Gupapuyngu,Vulnerable,300,-12.6624,136.549,1
Istro-Romanian,Severely endangered,300,45.3907,14.436,1
Jicarilla Apache,Severely endangered,300,36.9336,-106.9984,1
Kandas,Vulnerable,300,-4.4121,152.7868,1
Kangjia,Severely endangered,300,36.0757,102.2991,1
Kaxarari,Critically endangered,300,-9.5682,-66.1596,1
Kwansu,Vulnerable,300,-2.5383,140.2061,1
Legenyem,Vulnerable,300,-0.3186,130.7345,1
Mandaic,Critically endangered,300,31.3348,48.7023,1
Mangareva,Severely endangered,300,-23.1226,-134.978,1
Mani,Critically endangered,300,9.1129,-13.2165,1
Maniq,Definitely endangered,300,7.35,99.9333,1
Mono,Critically endangered,300,8.6679,14.1723,1
Northern Paiute (Oregon),Critically endangered,300,43.5883,-119.0595,1
Phong,Definitely endangered,300,18.3333,105,1
Shanenawa,Vulnerable,300,-8.1014,-70.2129,1
Sissano,Critically endangered,300,-3.0129,142.0491,1
Skolt Saami,Severely endangered,300,69.5333,28.6269,1
Tarpia,Severely endangered,300,-2.3723,140.0317,1
Tause,Vulnerable,300,-2.8744,136.2469,1
Thaayorre,Definitely endangered,300,-15.0867,141.7167,1
Tlingit (United States of America),Critically endangered,300,58.334,-133.7475,1
Tol,Critically endangered,300,15.293,-87.1416,1
Tsakonian,Critically endangered,300,37.1712,22.7911,1
Tuahka,Severely endangered,300,13.838,-84.4409,1
Ute (Utah),Severely endangered,300,40.2329,-109.8223,1
Vedda,Definitely endangered,300,7.346,81.3935,1
Vera'a,Definitely endangered,300,-13.872,167.4323,1
Warapu,Severely endangered,300,-2.9876,141.9838,1
Waru,Definitely endangered,300,-3.4393,121.9921,1
Yawarana,Severely endangered,300,5.3863,-66.0058,1
Yimas,Severely endangered,300,-4.6038,143.6077,1
Tilapa Otomí,Severely endangered,292,18.8923,-99.2986,1
Paumarí,Severely endangered,290,-5.8947,-64.5996,1
Wayana (Brazil),Vulnerable,288,1.3182,-55.2612,1
Achagua,Severely endangered,283,4.434,-70.8837,1
Guajá,Vulnerable,283,-3.4914,-46.2963,1
Maniwaki Algonquin,Severely endangered,280,46.3392,-76.0485,1
Alabama,Definitely endangered,275,30.7158,-94.7028,1
Cocopa (Arizona),Severely endangered,275,32.608,-114.6497,1
Miltu,Critically endangered,272,10.2149,17.3913,1
Arara do Pará,Vulnerable,271,-3.7546,-52.976,1
Kaki Ae,Vulnerable,266,-7.9653,145.7858,1
Nisga'a,Severely endangered,265,55.2035,-129.07,1
"Zapotec of the Valleys, central",Severely endangered,257,16.85,-96.6666,1
Bosilewa,Vulnerable,250,-9.449,150.661,1
Caquinte Campa,Definitely endangered,250,-11.146,-73.4765,1
Gwich'in (Canada),Severely endangered,250,67.4407,-134.8272,1
Kaibobo,Definitely endangered,250,-3.1843,128.1829,1
Kaiep,Vulnerable,250,-3.6666,143.8166,1
Kaiy,Vulnerable,250,-2.943,138.1777,1
Laji,Critically endangered,250,22.5304,105.885,1
Lehali,Vulnerable,250,-13.5205,167.2998,1
Lillooet,Severely endangered,250,50.3326,-122.6789,1
Löyöp,Vulnerable,250,-13.5311,167.3368,1
Nyangumarta,Vulnerable,250,-20.016,120.4101,1
Pear,Severely endangered,250,12.4666,102.65,1
Ruc,Definitely endangered,250,17.6833,105.7833,1
Sause,Severely endangered,250,-3.1706,139.7515,1
Texistepecan,Severely endangered,250,17.8941,-94.8163,1
Winnebago (Nebraska),Severely endangered,250,42.2475,-96.4722,1
Winnebago (Wisconsin),Severely endangered,250,44.2986,-90.8508,1
Zapotec of San Bartolo Yautepec,Severely endangered,246,16.4333,-95.9666,1
Mixtec of San Miguel Piedras,Severely endangered,243,17,-97.05,1
North Alaskan Inupiaq (Canada),Severely endangered,240,68.3217,-133.532,1
Waiwai (Guyana),Vulnerable,240,1.5598,-58.5131,1
As,Vulnerable,230,-0.736,131.7727,1
Siglitun,Severely endangered,230,69.4386,-132.9998,1
K'iche' (Mexico),Definitely endangered,226,19.3482,-90.7177,1
Paipai,Severely endangered,226,29.65,-115.1333,1
Garuwahi,Definitely endangered,225,-10.2284,150.4083,1
Picuris,Vulnerable,225,36.1914,-105.7151,1
Neku,Severely endangered,221,-21.5169,165.4568,1
Tiri,Definitely endangered,221,-21.6141,165.7836,1
Danisi,Critically endangered,220,-19.4769,25.2136,1
Emplawas,Definitely endangered,220,-8.0374,129.7375,1
Mixtec of the northeast lowlands,Severely endangered,220,17.5333,-97.35,1
Musom,Definitely endangered,219,-6.5391,146.9119,1
Pwaamèi,Definitely endangered,219,-20.8767,164.7413,1
"Zapotec of the Valleys, west",Definitely endangered,211,16.2666,-96.8833,1
Karo,Vulnerable,208,-10.5749,-61.5893,1
Cocopa (Mexico),Definitely endangered,206,32.25,-115.25,1
Korúbo,Vulnerable,205,-5.8346,-70.9277,1
Aja,Critically endangered,200,8.6136,25.2465,1
Antakirinya,Definitely endangered,200,-26.7848,134.2968,1
Bana,Severely endangered,200,20.4836,100.3161,1
Baras,Severely endangered,200,-1.8838,119.3774,1
Batak,Definitely endangered,200,10.1081,119,1
Birri,Critically endangered,200,5.4902,26.8505,1
Bonggo,Severely endangered,200,-2.2461,139.5208,1
Central Siberian Yupik (Chukotka),Severely endangered,200,64.546,-173.128,1
Chawte,Definitely endangered,200,24.1918,94.2736,1
Che Wong,Definitely endangered,200,3.6271,102.1907,1
Defaka,Critically endangered,200,4.538,7.5311,1
Doga,Definitely endangered,200,-9.6278,149.8384,1
Dorig,Definitely endangered,200,-14.3236,167.5669,1
Dukha,Severely endangered,200,51.9307,98.9318,1
Emae,Vulnerable,200,-17.0567,168.3956,1
Erokwanas,Vulnerable,200,-2.8113,132.6708,1
Gowro,Severely endangered,200,35.0254,72.9341,1
Hayu,Critically endangered,200,27.2912,86.0696,1
Hidatsa,Definitely endangered,200,47.7321,-102.6758,1
Ingrian,Severely endangered,200,59.7397,28.7017,1
Iwaidja,Vulnerable,200,-11.4592,132.55,1
Kadai,Definitely endangered,200,-1.7465,125.2606,1
Kao,Definitely endangered,200,1.1479,127.8204,1
Karo,Critically endangered,200,5.2003,36.0681,1
Kelo,Critically endangered,200,9.4463,34.0219,1
Kokota,Vulnerable,200,-8.0347,159.1781,1
Koneraw,Vulnerable,200,-8.3854,137.9415,1
Koroshi,Critically endangered,200,29.8978,52.6574,1
Magori,Vulnerable,200,-10.2554,149.2108,1
Maung,Vulnerable,200,-11.913,133.7255,1
Mehináku,Vulnerable,200,-12.5423,-53.2403,1
Moghol,Critically endangered,200,34.3569,61.5875,1
Ningalami,Severely endangered,200,35.2355,71.51,1
Northern Alta,Severely endangered,200,15.7162,121.4085,1
Numbani,Vulnerable,200,-7.5177,147.2991,1
Nung Ven,Vulnerable,200,23.15,105.2166,1
Ongamo,Critically endangered,200,-2.932,37.4853,1
Orejón,Severely endangered,200,-2.7674,-72.9492,1
Pacific Gulf Yupik,Severely endangered,200,58.1938,-155.6542,1
Pipil,Critically endangered,200,13.722,-89.7195,1
Saisiyat,Severely endangered,200,24.5977,121.0762,1
Sauk-Fox,Critically endangered,200,41.9637,-92.5768,1
Sepa,Vulnerable,200,-4.3245,144.9755,1
Shark Bay,Vulnerable,200,-15.2987,167.1459,1
Southern Chocho,Severely endangered,200,17.6608,-97.335,1
Theen,Severely endangered,200,20.2022,102.8538,1
Töitschu,Severely endangered,200,45.6913,7.8682,1
|Xaise,Critically endangered,200,-21.2458,26.1776,1
Beaver,Definitely endangered,195,56.481,-121.8831,1
Nootka,Severely endangered,185,49.2818,-126.0627,1
Tipai (Mexico),Severely endangered,184,32,-116.1166,1
Uru-eu-au-au,Vulnerable,183,-11.6852,-63.6547,1
Eastern Chocho,Severely endangered,181,17.7223,-97.3213,1
Bahonsuai,Definitely endangered,180,-2.2186,121.6845,1
Bedoanas,Vulnerable,180,-2.7263,132.5582,1
Jarawára,Vulnerable,180,-7.2153,-65.0115,1
Keder,Severely endangered,180,-2.043,139.0979,1
Straits Salish,Severely endangered,180,48.4457,-123.4205,1
Zo'é,Vulnerable,177,0.7909,-57.1289,1
Central Ojibwe,Definitely endangered,175,50.2275,-86.9635,1
Kuurinji,Definitely endangered,175,-18.1047,129.8474,1
Mwatebu,Definitely endangered,166,-10.0202,151.0537,1
Zazao,Critically endangered,166,-8.1832,159.2269,1
"Zapotec of the Southern mountains, northwest lowlands",Definitely endangered,164,16.6333,-96.95,1
Pije,Severely endangered,161,-20.7869,164.9487,1
Aweti,Vulnerable,160,-12.2053,-53.3705,1
Koro,Definitely endangered,160,-14.3242,167.4728,1
Meriam Mir,Definitely endangered,160,-9.9201,144.0472,1
Onjab,Vulnerable,160,-9.2973,149.1613,1
Tsimshian,Critically endangered,160,54.5016,-130.3832,1
Chihuahua Lower Pima,Definitely endangered,159,28.686,-106.1378,1
Sonora Lower Pima,Severely endangered,159,28.3716,-108.9265,1
Kaska,Severely endangered,155,61.9751,-132.4544,1
Aikana,Definitely endangered,150,-12.651,-60.3918,1
Aleut (Eastern),Critically endangered,150,54.7212,-164.4433,1
Aleut (Western),Severely endangered,150,52.2304,-174.1978,1
Amblong,Definitely endangered,150,-15.4933,166.9846,1
Arguni,Vulnerable,150,-2.6632,132.5418,1
Assiniboine (United States of America),Critically endangered,150,48.4466,-114.8783,1
Baki,Vulnerable,150,-16.7013,168.145,1
Cacua,Severely endangered,150,0.9166,-69.5,1
Camarines Norte Agta,Severely endangered,150,14.0135,122.8873,1
Cubeo (Brazil),Definitely endangered,150,1.2713,-67.8076,1
Gwich'in (United States of America),Severely endangered,150,68.1171,-145.5173,1
Hiw,Definitely endangered,150,-13.1343,166.5671,1
Katxuyana-Xikuyána,Vulnerable,150,2.043,-55.4589,1
Ket,Severely endangered,150,62.6236,87.7148,1
Koyukon,Critically endangered,150,66.3375,-151.1608,1
Malmariv,Vulnerable,150,-15.2656,166.9104,1
Mt. Iraya Agta,Definitely endangered,150,13.459,123.5467,1
Ocaina (Peru),Critically endangered,150,-2.8552,-71.9824,1
Papapana,Definitely endangered,150,-5.8974,155.2505,1
Quechan,Definitely endangered,150,32.7279,-114.7255,1
Southern Ayta,Critically endangered,150,13.027,124.1549,1
Tundra Yukagir,Critically endangered,150,69.1654,154.4732,1
Tupari,Definitely endangered,150,-12.0876,-62.4792,1
Wari,Definitely endangered,150,-3.2173,138.4497,1
Yavapai,Severely endangered,150,34.5638,-112.4453,1
Mlabri,Definitely endangered,149,18.4796,101.0961,1
Negidal,Critically endangered,147,52.942,139.779,1
Suarmin,Definitely endangered,145,-5.0526,141.9818,1
Kickapoo (Mexico),Critically endangered,144,28,-101.75,1
Wab,Vulnerable,142,-5.6296,146.39,1
Motocintlec,Critically endangered,141,15.3709,-92.2484,1
Dengalu,Definitely endangered,140,-7.0572,146.3598,1
Dimbong,Critically endangered,140,4.7078,10.6567,1
Kunbarlang,Severely endangered,140,-12.0661,134.0661,1
Machineri (Bolivia),Severely endangered,140,-11.146,-69.0161,1
Taworta,Vulnerable,140,-3.2776,138.7902,1
ǂHoa,Critically endangered,140,-24.1668,24.4885,1
Handuri,Critically endangered,138,31.0011,77.3107,1
Suruahá,Vulnerable,136,-6.8828,-66.9726,1
Kutenai,Severely endangered,135,49.6467,-115.7372,1
Nauna,Vulnerable,130,-2.2159,148.1986,1
Okanagan,Definitely endangered,130,50.3059,-119.3228,1
Piu,Definitely endangered,130,-6.9591,146.4257,1
Ocaina (Colombia),Severely endangered,126,-2,-71.5,1
Yuki,Severely endangered,125,-16.2463,-65.0061,1
Asurini do Xingu,Vulnerable,124,-3.9095,-52.4707,1
Nahukwa,Definitely endangered,124,-12.1043,-53.2944,1
Aputai,Critically endangered,120,-7.6511,126.4086,1
Budibud,Vulnerable,120,-9.2973,153.6891,1
Capanahua,Severely endangered,120,-6.5991,-74.2895,1
Dâw,Vulnerable,120,0.2197,-68.7744,1
Ili Turk,Severely endangered,120,44.0244,81.145,1
Lamu,Critically endangered,120,26.2434,100.8654,1
Obokuitai,Vulnerable,120,-2.9046,138.0816,1
Polonomombauk,Definitely endangered,120,-15.4907,167.0814,1
Samre,Critically endangered,120,12.1166,103.0833,1
Tutuba,Definitely endangered,120,-15.5727,167.275,1
Northern Tutchone,Definitely endangered,115,62.8255,-136.5838,1
Dubu,Vulnerable,110,-3.5134,140.8612,1
Haisla,Critically endangered,110,53.9745,-128.6443,1
Heiltsuk,Critically endangered,105,52.1591,-128.1546,1
Kwegu,Critically endangered,103,5.4191,36.0791,1
Adnyamathanha,Definitely endangered,100,-30.6,138.6035,1
Ainbai,Severely endangered,100,-3.1,141.2,1
Arem,Severely endangered,100,18.1771,105.3369,1
Banawá Yafi,Vulnerable,100,-6.6427,-64.5996,1
Bara (Colombia),Critically endangered,100,0.05,-70.1733,1
Bikaru,Severely endangered,100,-4.8,143,1
Boor,Critically endangered,100,10.2149,17.3721,1
Burate,Severely endangered,100,-2.7811,135.9915,1
Callahuaya,Critically endangered,100,-15.1357,-69.1699,1
Comanche,Severely endangered,100,34.6086,-98.3904,1
Dabra,Vulnerable,100,-3.4092,139.0209,1
Djinang,Definitely endangered,100,-12.3507,135.1098,1
Dulbu,Critically endangered,100,9.985,10.0579,1
Ghomara,Critically endangered,100,35.0108,-5.5151,1
Itelmen,Critically endangered,100,57.1496,156.9012,1
Jebero,Critically endangered,100,-5.3097,-75.9814,1
Jilbe,Critically endangered,100,11.749,14.5458,1
Kalamo,Severely endangered,100,-6.7,142.5,1
Kanowit,Severely endangered,100,2.0652,112.1489,1
Karas,Severely endangered,100,-3.4585,132.6599,1
Kiong,Critically endangered,100,5.2906,8.3523,1
Kofei,Severely endangered,100,-2.3833,136.7907,1
Likum,Definitely endangered,100,-2.1651,146.6921,1
Maricopa,Severely endangered,100,33.3772,-112.1676,1
Mohave (Arizona),Severely endangered,100,34.0231,-114.5045,1
Mohave (California),Severely endangered,100,34.6905,-114.598,1
Molo,Critically endangered,100,10.898,34.2773,1
Mulao,Severely endangered,100,26.5851,107.9524,1
Mvanip,Critically endangered,100,6.7027,11.2225,1
Nafi,Severely endangered,100,-6.3999,146.802,1
Nemadi,Critically endangered,100,18.4118,-9.4482,1
Ninam (Venezuela),Vulnerable,100,4.5435,-63.5668,1
Omagua (Peru),Critically endangered,100,-4.0724,-73.103,1
Oroch,Critically endangered,100,49.1781,139.7625,1
Oroha,Severely endangered,100,-9.7686,161.51,1
Pauwi,Vulnerable,100,-1.8151,137.8193,1
Piame,Severely endangered,100,-4.9,142.85,1
Pyu,Severely endangered,100,-4.5,140.9,1
Ruga,Critically endangered,100,25.2844,90.4614,1
Sahaptin,Severely endangered,100,44.7712,-121.2871,1
Samatao,Critically endangered,100,24.9359,102.7935,1
Seneca (United States of America),Severely endangered,100,42.3291,-78.868,1
Senggi,Vulnerable,100,-3.4339,140.7685,1
Shawnee,Severely endangered,100,35.359,-96.9298,1
Shiwiar,Severely endangered,100,-2.2186,-76.8164,1
Shompen,Critically endangered,100,7.0245,93.8232,1
Soo,Critically endangered,100,2.161,34.5986,1
Tai Nora,Critically endangered,100,26.8485,94.5648,1
Tai Rong,Critically endangered,100,26.9024,94.757,1
Tangam,Critically endangered,100,29.1473,94.5538,1
Tariana (Brazil),Critically endangered,100,0.9228,-67.5439,1
Tirahi,Critically endangered,100,34.3139,70.3729,1
"Ute (Colorado, Southern Ute)",Severely endangered,100,37.115,-107.6331,1
Vehes,Severely endangered,100,-6.9427,146.9311,1
Wik Ngathan,Definitely endangered,100,-14.9561,141.8884,1
Xokleng,Critically endangered,100,-26.5522,-49.0779,1
Yangkam,Critically endangered,100,9.1048,9.8904,1
Yarawata,Severely endangered,98,-4.9377,145.4946,1
O'odham (Mexico),Definitely endangered,94,31.5188,-112.7472,1
Samosa,Severely endangered,94,-5.0116,145.5386,1
Mindiri,Severely endangered,93,-5.5517,146.1538,1
Usu,Severely endangered,93,-5.2851,145.4974,1
Iteri,Severely endangered,90,-4.0807,141.5039,1
Ngarinyin,Definitely endangered,90,-16.9096,125.4199,1
Repanbitip,Definitely endangered,90,-16.3155,167.6026,1
Tofanma,Vulnerable,90,-3.5675,140.7925,1
Taiap,Severely endangered,89,-4.1,144.5,1
Kusunda,Critically endangered,87,27.9275,84.2866,1
Patamona (Brazil),Vulnerable,87,4.5216,-60.3808,1
Xiri,Critically endangered,87,-31.3924,21.0498,1
Narau,Severely endangered,85,-3.3818,139.8202,1
Ak,Severely endangered,83,-3.6093,141.6604,1
Araona,Severely endangered,81,-12.4473,-68.1372,1
Ari,Severely endangered,80,-8,142.4,1
Assiniboine (Canada),Critically endangered,80,50.3536,-103.4841,1
Dorro,Severely endangered,80,-9.1834,141.8994,1
Gong,Severely endangered,80,15.088,99.523,1
Itik,Vulnerable,80,-2.3181,139.148,1
Mari,Severely endangered,80,-9.0478,141.8994,1
Pwapwa,Severely endangered,80,-20.8074,164.5367,1
Somm,Definitely endangered,80,-6.1296,146.4642,1
Tobati,Severely endangered,80,-2.6059,140.7997,1
Moré,Critically endangered,76,-12.0822,-64.9731,1
Mores,Severely endangered,75,-15.3583,166.8988,1
Musan,Severely endangered,75,-4.0355,141.361,1
Papi,Severely endangered,75,-4.5,142,1
Sarcee,Critically endangered,75,50.9682,-114.3851,1
Sekani,Critically endangered,75,58.0952,-122.7067,1
Arawun,Severely endangered,73,-5.5093,145.8929,1
Siriano (Brazil),Vulnerable,71,0.5244,-67.5,1
Teko,Severely endangered,71,15.6582,-92.1427,1
Anus,Severely endangered,70,-2.1268,139.5126,1
Awera,Vulnerable,70,-2.7084,136.0395,1
Boruca,Critically endangered,70,9.001,-83.323,1
Doutai,Severely endangered,70,-3.2282,138.2189,1
East Cape Yupik,Critically endangered,70,66.0166,-169.7166,1
Iresim,Severely endangered,70,-3.6011,135.1428,1
Mafea,Definitely endangered,70,-15.4219,167.2366,1
Vilamovian,Severely endangered,70,49.7909,18.762,1
Western Chocho,Severely endangered,70,17.7486,-97.4409,1
Yankunytjatjara,Definitely endangered,70,-27.3132,132.0666,1
Yanyuwa,Severely endangered,70,-15.9613,136.3842,1
Yapunda,Severely endangered,69,-3.5,142.4,1
Bothar,Severely endangered,68,-9.0695,141.155,1
Kari'ña (Brazil),Definitely endangered,66,4.1967,-51.6027,1
Ritharrngu,Definitely endangered,66,-13.1543,134.8242,1
Northern Straits Salish,Critically endangered,65,48.488,-122.6363,1
Sumariup,Severely endangered,65,-4.7,143.3,1
Ixil (Mexico),Critically endangered,64,19.508,-89.3188,1
Orok,Critically endangered,64,52.3437,143.0557,1
Carapana (Brazil),Severely endangered,63,-3.0966,-65.061,1
Yan-nhangu,Definitely endangered,61,-12.094,134.89,1
Atemble,Definitely endangered,60,-5.1292,144.7421,1
Bagupi,Definitely endangered,60,-5.0454,145.5822,1
Carapana (Colombia),Definitely endangered,60,0.9337,-70.8178,1
Gooniyandi,Severely endangered,60,-18.8335,125.9912,1
Gurrgoni,Vulnerable,60,-12.1037,134.3408,1
Kija,Severely endangered,60,-18.0832,128.1884,1
Montana Salish,Critically endangered,60,47.5944,-114.1182,1
Ngangikurunggurr,Severely endangered,60,-14.6792,130.3967,1
Olultecan,Severely endangered,60,17.9277,-94.8969,1
Senaya,Critically endangered,60,36.2664,50.0042,1
Tahltan,Critically endangered,60,57.8451,-129.9745,1
Tembé,Severely endangered,60,-2.6467,-46.7248,1
Mosimo,Severely endangered,58,-4.9473,145.5551,1
Tapayuna,Severely endangered,58,-10.5559,-53.0639,1
Bepour,Severely endangered,57,-4.586,145.4184,1
Faita,Severely endangered,57,-5.657,145.5001,1
Teribe (Costa Rica),Critically endangered,57,9.0593,-83.2876,1
Kiliwa,Critically endangered,56,31.25,-115.6166,1
Moere,Severely endangered,56,-4.6038,145.437,1
Baure,Critically endangered,55,-13.1008,-64.5007,1
Southern Haida,Critically endangered,55,53.2697,-131.9861,1
Tlingit (Canada),Critically endangered,55,60.171,-132.7395,1
